name,latitude,longitude,description,city,country,category,address,phone,website
Bar Planet,-33.8982604,151.1776339,"Rating: 4.7/5 (0 reviews) | Hours: [{""day"":""Monday"",""hours"":""5 PM to 12 AM""},{""day"":""Tuesday"",""hours"":""5 PM to 12 AM""},{""day"":""Wednesday"",""hours"":""Closed""},{""day"":""Thursday"",""hours"":""Closed""},{""day"":""Friday"",""hours"":""5 PM to 2 AM""},{""day"":""Saturday"",""hours"":""3 PM to 2 AM""},{""day"":""Sunday"",""hours"":""3 PM to 12 AM""}] | Place ID: ChIJT04JjrqxEmsR7H9g9GpRu-4",Sydney,Australia,cafe,"16 Enmore Rd, Newtown NSW 2042, Australia",,https://www.muchogroup.com.au/barplanet
Bar Ponale,45.5218921,9.2093982,"Rating: 4.8/5 (0 reviews) | Hours: [{""day"":""Monday"",""hours"":""5:30 AM to 7 PM""},{""day"":""Tuesday"",""hours"":""5:30 AM to 7 PM""},{""day"":""Wednesday"",""hours"":""5:30 AM to 7 PM""},{""day"":""Thursday"",""hours"":""5:30 AM to 7 PM""},{""day"":""Friday"",""hours"":""5:30 AM to 7 PM""},{""day"":""Saturday"",""hours"":""5:30 AM to 1 PM""},{""day"":""Sunday"",""hours"":""Closed""}] | Place ID: ChIJ6-9b8mjHhkcRyjaz4R_zgpc",Milan,Italy,cafe,"Via Ponale, 20162 Milano MI, Italy",,
Bar Pronto,-33.8662194,151.2087005,"Rating: 4.9/5 (0 reviews) | Hours: [""Monday: 5:00 AM – 4:30 PM"",""Tuesday: 5:00 AM – 4:30 PM"",""Wednesday: 6:00 AM – 1:00 PM"",""Thursday: Closed"",""Friday: 5:00 AM – 4:30 PM"",""Saturday: 5:00 AM – 2:30 PM"",""Sunday: 6:30 AM – 12:00 PM""] | Place ID: ChIJCxMBNUCuEmsR5EHLzHO5V3Q",Sydney,Australia,cafe,"72 Pitt St, Sydney NSW 2000, Australia",,
Bar Pulci Drinks & Food,45.5144129,9.2070985,"Rating: 4.5/5 (0 reviews) | Hours: [{""day"":""Monday"",""hours"":""7 AM to 6 PM""},{""day"":""Tuesday"",""hours"":""7 AM to 6 PM""},{""day"":""Wednesday"",""hours"":""7 AM to 6 PM""},{""day"":""Thursday"",""hours"":""7 AM to 6 PM""},{""day"":""Friday"",""hours"":""7 AM to 6 PM""},{""day"":""Saturday"",""hours"":""7 AM to 6 PM""},{""day"":""Sunday"",""hours"":""Closed""}] | Place ID: ChIJKd4LwknHhkcRV-EOACmRt64",Milan,Italy,cafe,"Via Luigi Pulci, 13, 20126 Milano MI, Italy",,
Bar Restaurant Brunch,48.8616463,2.4059322,"Rating: 4.5/5 (0 reviews) | Hours: [{""day"":""Monday"",""hours"":""11 AM to 11 PM""},{""day"":""Tuesday"",""hours"":""11 AM to 11 PM""},{""day"":""Wednesday"",""hours"":""11 AM to 11 PM""},{""day"":""Thursday"",""hours"":""11 AM to 11 PM""},{""day"":""Friday"",""hours"":""11 AM to 11 PM""},{""day"":""Saturday"",""hours"":""11 AM to 11 PM""},{""day"":""Sunday"",""hours"":""11 AM to 11 PM""}] | Place ID: ChIJHW9nboRt5kcRaP1coS2Rv8E",Paris,France,restaurant,"Rue des Balkans, 75020 Paris, France",,
Bar Restaurant Jù Dé,41.4065025,2.1792483,"Rating: 4.9/5 (0 reviews) | Hours: [{""day"":""Monday"",""hours"":""8:30 AM to 11 PM""},{""day"":""Tuesday"",""hours"":""8:30 AM to 11 PM""},{""day"":""Wednesday"",""hours"":""8:30 AM to 11 PM""},{""day"":""Thursday"",""hours"":""8:30 AM to 11 PM""},{""day"":""Friday"",""hours"":""8:30 AM to 11:30 PM""},{""day"":""Saturday"",""hours"":""9 AM to 11 PM""},{""day"":""Sunday"",""hours"":""9 AM to 11 PM""}] | Place ID: ChIJu-98ljyjpBIRV3UghHSzmu8",Barcelona,Spain,restaurant,"Carrer de Mallorca, 465, Eixample, 08013 Barcelona, Spain",,
Bar Restaurant La Moreneta,41.4072222,2.1797222,"Rating: 4.5/5 (0 reviews) | Hours: [{""day"":""Monday"",""hours"":""8 AM to 4 PM""},{""day"":""Tuesday"",""hours"":""8 AM to 4 PM""},{""day"":""Wednesday"",""hours"":""8 AM to 4 PM""},{""day"":""Thursday"",""hours"":""Closed""},{""day"":""Friday"",""hours"":""8 AM to 4 PM, 8 to 10:30 PM""},{""day"":""Saturday"",""hours"":""Closed""},{""day"":""Sunday"",""hours"":""Closed""}] | Place ID: ChIJSRS3Y9mipBIRquBae0Ok0lw",Barcelona,Spain,restaurant,"Carrer de Cartagena, 234, Eixample, 08013 Barcelona, Spain",,https://www.restaurantlamoreneta.com/
Bar restaurante 504II,41.4087081,2.1780156,"Rating: 4.5/5 (0 reviews) | Hours: [{""day"":""Monday"",""hours"":""7:30 AM to 1 AM""},{""day"":""Tuesday"",""hours"":""7:30 AM to 1 AM""},{""day"":""Wednesday"",""hours"":""7:30 AM to 1 AM""},{""day"":""Thursday"",""hours"":""7:30 AM to 1 AM""},{""day"":""Friday"",""hours"":""7:30 AM to 1 AM""},{""day"":""Saturday"",""hours"":""Closed""},{""day"":""Sunday"",""hours"":""9:30 AM to 1 AM""}] | Place ID: ChIJCXyOSNqipBIRsEcUJHjGtaQ",Barcelona,Spain,cafe,"Carrer del Rosselló, 482, Eixample, 08025 Barcelona, Spain",,
BAR RESTAURANTE GARDENIA,41.4083048,2.1797833,"Rating: 4.7/5 (0 reviews) | Hours: [{""day"":""Monday"",""hours"":""Closed""},{""day"":""Tuesday"",""hours"":""12 PM to 12 AM""},{""day"":""Wednesday"",""hours"":""12 PM to 12 AM""},{""day"":""Thursday"",""hours"":""12 PM to 12 AM""},{""day"":""Friday"",""hours"":""12 PM to 1 AM""},{""day"":""Saturday"",""hours"":""12 PM to 1 AM""},{""day"":""Sunday"",""hours"":""12 PM to 12 AM""}] | Place ID: ChIJk284RHKjpBIR3ZSixPqHtws",Barcelona,Spain,restaurant,"Carrer de Provença, 546, local 3, Eixample, 08025 Barcelona, Spain",,https://restaurantegardenia.es/
Bar Robledo,40.346447,-3.7050912,"Rating: 4.4/5 (0 reviews) | Hours: [""[object Object]"",""[object Object]"",""[object Object]"",""[object Object]"",""[object Object]"",""[object Object]"",""[object Object]""] | Place ID: ChIJhQBxLCcnQg0RPPgSwJZSt5c",Madrid,Spain,cafe,"Calle del Dr. Martín Arévalo, 43, Villaverde, 28021 Burgos, Madrid, Spain",,
Bar San Calisto | Roma,41.8890617,12.4708035,"Italian beers, long drinks & cream-topped coffee granita at a down-to-earth bar opened in the 1960s. | Rating: 4.5/5 (0 reviews) | Hours: [{""day"":""Monday"",""hours"":""6 AM to 2 AM""},{""day"":""Tuesday"",""hours"":""6 AM to 2 AM""},{""day"":""Wednesday"",""hours"":""6 AM to 2 AM""},{""day"":""Thursday"",""hours"":""6 AM to 2 AM""},{""day"":""Friday"",""hours"":""6 AM to 2 AM""},{""day"":""Saturday"",""hours"":""6 AM to 2 AM""},{""day"":""Sunday"",""hours"":""6 AM to 2 AM""}] | Place ID: ChIJMejcbThgLxMRs9tghChZbRI",Rome,Italy,cafe,"Piazza di S. Calisto, 3, 00153 Roma RM, Italy",,https://barsancalisto.it/
Bar Tabacchi,45.515864,9.2035804,"Rating: 4.3/5 (0 reviews) | Hours: [{""day"":""Monday"",""hours"":""6:30 AM to 7:30 PM""},{""day"":""Tuesday"",""hours"":""6:30 AM to 7:30 PM""},{""day"":""Wednesday"",""hours"":""6:30 AM to 7:30 PM""},{""day"":""Thursday"",""hours"":""6:30 AM to 7:30 PM""},{""day"":""Friday"",""hours"":""6:30 AM to 7:30 PM""},{""day"":""Saturday"",""hours"":""6:30 AM to 7:30 PM""},{""day"":""Sunday"",""hours"":""Closed""}] | Place ID: ChIJe--PyQHHhkcRf4oP5HNdxEQ",Milan,Italy,bar,"Viale Esperia, 1620, 20162 Milano MI, Italy",,
Bar Tabacchi Zanzibar,45.520378,9.2268199,"Rating: 4.3/5 (0 reviews) | Hours: [{""day"":""Monday"",""hours"":""6 AM to 8:30 PM""},{""day"":""Tuesday"",""hours"":""6 AM to 8:30 PM""},{""day"":""Wednesday"",""hours"":""6 AM to 8:30 PM""},{""day"":""Thursday"",""hours"":""6 AM to 8:30 PM""},{""day"":""Friday"",""hours"":""6 AM to 8:30 PM""},{""day"":""Saturday"",""hours"":""6 AM to 8:30 PM""},{""day"":""Sunday"",""hours"":""6 AM to 8 PM""}] | Place ID: ChIJWc-TamjHhkcRRfPGTOYZHJo",Milan,Italy,cafe,"Viale Monza, 345/a, 20126 Milano MI, Italy",,
Bar Thursdaydrinkclub,37.5415759,126.9732313,"Rating: 4.8/5 (0 reviews) | Hours: [{""day"":""Monday"",""hours"":""7 PM to 1 AM""},{""day"":""Tuesday"",""hours"":""7 PM to 1 AM""},{""day"":""Wednesday"",""hours"":""7 PM to 1 AM""},{""day"":""Thursday"",""hours"":""7 PM to 1 AM""},{""day"":""Friday"",""hours"":""7 PM to 1 AM""},{""day"":""Saturday"",""hours"":""7 PM to 1 AM""},{""day"":""Sunday"",""hours"":""7 PM to 1 AM""}] | Place ID: ChIJ05UMP0GjfDURbYM6P1i5W3g",Seoul,South Korea,bar,"South Korea, Seoul, Yongsan District, Hangang-daero, 260 2층",,https://instagram.com/thursdaydrinkclub?igshid=MmIzYWVlNDQ5Yg==
Bar Thyme,-37.7996528,144.896719,"Rating: 4.8/5 (0 reviews) | Hours: [{""day"":""Monday"",""hours"":""Closed""},{""day"":""Tuesday"",""hours"":""Closed""},{""day"":""Wednesday"",""hours"":""5 to 10 PM""},{""day"":""Thursday"",""hours"":""5 to 10 PM""},{""day"":""Friday"",""hours"":""5 to 11 PM""},{""day"":""Saturday"",""hours"":""12 to 11 PM""},{""day"":""Sunday"",""hours"":""12 to 4 PM""}] | Place ID: ChIJj6YS57Jd1moR1byFl5zJ1p4",Melbourne,Australia,cafe,"227 Barkly St, Footscray VIC 3011, Australia",,http://barthyme.com.au/
Bar Tozino - Spanish Tapas Restaurant London,51.4993251,-0.0755213,"Barcelona-style tapas bar in rustic jamon bodega, with hanging hams and meat carved in front of you. | Rating: 4.6/5 (0 reviews) | Hours: [{""day"":""Monday"",""hours"":""Closed""},{""day"":""Tuesday"",""hours"":""Closed""},{""day"":""Wednesday"",""hours"":""5 to 10 PM""},{""day"":""Thursday"",""hours"":""5 to 10 PM""},{""day"":""Friday"",""hours"":""12 to 10 PM""},{""day"":""Saturday"",""hours"":""11 AM to 10 PM""},{""day"":""Sunday"",""hours"":""12 to 5 PM""}] | Place ID: ChIJpcPnq0YDdkgRlZcLHqj1EUg",London,United Kingdom,cafe,"Malty St Market, Ropewalk, London SE1 3PA, United Kingdom",,https://casa-valero.com/
Bar Trattoria da Luciano e Stefano,45.4444813,9.2636679,"Rating: 4.3/5 (0 reviews) | Hours: [{""day"":""Monday"",""hours"":""8 AM to 3 PM""},{""day"":""Tuesday"",""hours"":""8 AM to 3 PM""},{""day"":""Wednesday"",""hours"":""8 AM to 3 PM""},{""day"":""Thursday"",""hours"":""8 AM to 3 PM""},{""day"":""Friday"",""hours"":""8 AM to 3 PM""},{""day"":""Saturday"",""hours"":""8 AM to 4 PM""},{""day"":""Sunday"",""hours"":""8 AM to 12 PM""}] | Place ID: ChIJkR5EMPrFhkcRISCmyRRuCnc",Milan,Italy,cafe,"Via Elio Vittorini, 24, 20138 Milano MI, Italy",,http://www.facebook.com/trattoriapontelambro
Bar TwentySeven,52.3724914,4.8933255,"Rating: 4.7/5 (0 reviews) | Hours: [{""day"":""Monday"",""hours"":""12 PM to 1 AM""},{""day"":""Tuesday"",""hours"":""12 PM to 1 AM""},{""day"":""Wednesday"",""hours"":""12 PM to 1 AM""},{""day"":""Thursday"",""hours"":""12 PM to 1 AM""},{""day"":""Friday"",""hours"":""12 PM to 3 AM""},{""day"":""Saturday"",""hours"":""12 PM to 3 AM""},{""day"":""Sunday"",""hours"":""12 PM to 1 AM""}] | Place ID: ChIJq2fVehYJxkcRMZz9PllMTPk",Amsterdam,Netherlands,bar,"Dam 27, 1012 JS Amsterdam, Netherlands",,https://www.bartwentyseven.com/
Bar Vier,37.532596,126.9740662,"Rating: 4.7/5 (0 reviews) | Hours: [{""day"":""Monday"",""hours"":""Closed""},{""day"":""Tuesday"",""hours"":""6 PM to 1 AM""},{""day"":""Wednesday"",""hours"":""6 PM to 1 AM""},{""day"":""Thursday"",""hours"":""6 PM to 1 AM""},{""day"":""Friday"",""hours"":""6 PM to 2 AM""},{""day"":""Saturday"",""hours"":""6 PM to 2 AM""},{""day"":""Sunday"",""hours"":""6 PM to 1 AM""}] | Place ID: ChIJK9hP91ejfDURnsfXuoyu0eM",Seoul,South Korea,cafe,"South Korea, Seoul, Yongsan District, Hangangno 1(il)-ga, 지하1층 216-11",,https://www.instagram.com/bar_vier/
Bar-Cafeteria Prados,41.3784022,2.1278974,"Rating: 4.8/5 (0 reviews) | Hours: [{""day"":""Monday"",""hours"":""7:30 AM to 9 PM""},{""day"":""Tuesday"",""hours"":""7:30 AM to 9 PM""},{""day"":""Wednesday"",""hours"":""7:30 AM to 9 PM""},{""day"":""Thursday"",""hours"":""7:30 AM to 9 PM""},{""day"":""Friday"",""hours"":""7:30 AM to 9 PM""},{""day"":""Saturday"",""hours"":""7:30 AM to 9 PM""},{""day"":""Sunday"",""hours"":""8:30 AM to 8 PM""}] | Place ID: ChIJ513TFWOZpBIRoBx28JOBAio",Barcelona,Spain,cafe,"Av. de Madrid, 98, Sants-Montjuïc, 08028 Barcelona, Spain",,https://www.instagram.com/prados_bar_cafeteria
Bar-Cervecería La Morcilla.,40.344561,-3.712822,"Rating: 4.3/5 (0 reviews) | Hours: [{""day"":""Monday"",""hours"":""9:30 AM to 10:30 PM""},{""day"":""Tuesday"",""hours"":""9:30 AM to 10:30 PM""},{""day"":""Wednesday"",""hours"":""9:30 AM to 10:30 PM""},{""day"":""Thursday"",""hours"":""9:30 AM to 10:30 PM""},{""day"":""Friday"",""hours"":""10 AM to 11:30 PM""},{""day"":""Saturday"",""hours"":""11 AM to 11:30 PM""},{""day"":""Sunday"",""hours"":""Closed""}] | Place ID: ChIJ6aMozCQnQg0RXMgnjWEu6I0",Madrid,Spain,bar,"C. Alberto Palacios, 2, Villaverde, 28021 Madrid, Spain",,
bar56,40.7033899,-73.9923524,"Rating: 4.8/5 (0 reviews) | Hours: [{""day"":""Monday"",""hours"":""Closed""},{""day"":""Tuesday"",""hours"":""5 to 9 PM""},{""day"":""Wednesday"",""hours"":""5 to 10 PM""},{""day"":""Thursday"",""hours"":""Closed""},{""day"":""Friday"",""hours"":""12 to 4 PM, 5 to 10 PM""},{""day"":""Saturday"",""hours"":""12 to 4 PM, 5 to 10 PM""},{""day"":""Sunday"",""hours"":""12 to 4 PM, 5 to 9 PM""}] | Place ID: ChIJ5SzimXpbwokRR2U_8IFONFw",New York,United States,cafe,"53 Water St, Brooklyn, NY 11201",,https://www.bar56dumbo.com/
Barangaroo Reserve,-33.8633,151.2,,Sydney,Australia,,,,
Baranovskoe Central Cemetery,43.644335,39.72749,,Khostinsky City District,Russia,cemetery,,,
Baranovskoye Kladbishche,43.6452535,39.7282979,Rating: 3.7/5 (0 reviews) | Place ID: ChIJ8cT-9-zM9UARDFwBJStI6iU,Bolshoy Sochi,Russia,cemetery,"Bolshoy Sochi, Krasnodar Krai, Russia, 354068",,
Baraonda Bar,45.5150757,9.1423547,"Rating: 4.3/5 (0 reviews) | Hours: [{""day"":""Monday"",""hours"":""6 AM to 7:30 PM""},{""day"":""Tuesday"",""hours"":""6 AM to 7:30 PM""},{""day"":""Wednesday"",""hours"":""6 AM to 7:30 PM""},{""day"":""Thursday"",""hours"":""6 AM to 7:30 PM""},{""day"":""Friday"",""hours"":""6 AM to 7:30 PM""},{""day"":""Saturday"",""hours"":""6 AM to 7:30 PM""},{""day"":""Sunday"",""hours"":""Closed""}] | Place ID: ChIJZcSDtlzAhkcRxcdGcS29G7k",Milan,Italy,cafe,"Via Giuseppe Ungaretti, 10, 20157 Milano MI, Italy",,
Barbadoes Street Cemetery,-43.524265,172.6455,,Christchurch City,New Zealand,cemetery,,,
Barbadoes Street Cemetery,-43.5232807,172.6460786,"Rating: 4.4/5 (0 reviews) | Hours: [{""day"":""Monday"",""hours"":""Open 24 hours""},{""day"":""Tuesday"",""hours"":""Open 24 hours""},{""day"":""Wednesday"",""hours"":""Open 24 hours""},{""day"":""Thursday"",""hours"":""Open 24 hours""},{""day"":""Friday"",""hours"":""Open 24 hours""},{""day"":""Saturday"",""hours"":""Open 24 hours""},{""day"":""Sunday"",""hours"":""Open 24 hours""}] | Place ID: ChIJhfzF5ZeLMW0RqXiugUzrHIU",Christchurch,New Zealand,cemetery,"384 Barbadoes Street, Christchurch Central City, Christchurch 8013, New Zealand",,
Barbican Centre,51.5202077,-0.0937864,"Cultural venue with concert hall, theatres, cinema, galleries and home of London Symphony Orchestra. | Rating: 4.6/5 (0 reviews) | Place ID: ChIJdbJk-1YbdkgRQB_SdWbiVsc",London,United Kingdom,art_gallery,"Silk St, Barbican, London EC2Y 8DS, United Kingdom",,https://www.barbican.org.uk/
Barbican Centre,51.5202,-0.095,,London,United Kingdom,landmark,,,
Barbican Centre,51.52,-0.0956,,London,United Kingdom,museum,,,
Barbican Estate,51.519166666,-0.093888888,,London,United Kingdom,landmark,,,
Barbuto Brooklyn,40.7024367,-73.99552,"Rating: 4.6/5 (0 reviews) | Hours: [{""day"":""Monday"",""hours"":""7 to 10 AM, 12 to 10 PM""},{""day"":""Tuesday"",""hours"":""7 to 10 AM, 12 to 10 PM""},{""day"":""Wednesday"",""hours"":""7 to 10 AM, 12 to 3 PM, 5 PM to 1 AM""},{""day"":""Thursday"",""hours"":""9 AM to 3 PM, 5 to 9 PM""},{""day"":""Friday"",""hours"":""7 to 10 AM, 12 to 10:30 PM""},{""day"":""Saturday"",""hours"":""9 AM to 3 PM, 4 to 10:30 PM""},{""day"":""Sunday"",""hours"":""9 AM to 3 PM, 4 to 9:30 PM""}] | Place ID: ChIJ60KUCphbwokRXWseK7A_M4Y",New York,United States,restaurant,"60 Furman St, Brooklyn, NY 11201",,https://www.1hotels.com/brooklyn-bridge/taste/barbuto?utm_source=yext&utm_medium=organic&utm_campaign=yext
Barça Immersive Tour,41.3806162,2.1202779,"Rating: 4.2/5 (0 reviews) | Hours: [{""day"":""Monday"",""hours"":""10 AM to 6 PM""},{""day"":""Tuesday"",""hours"":""10 AM to 6 PM""},{""day"":""Wednesday"",""hours"":""10 AM to 6 PM""},{""day"":""Thursday"",""hours"":""10 AM to 6 PM""},{""day"":""Friday"",""hours"":""10 AM to 6 PM""},{""day"":""Saturday"",""hours"":""10 AM to 6 PM""},{""day"":""Sunday"",""hours"":""10 AM to 3 PM""}] | Place ID: ChIJ0XAdyTOZpBIRzqixzH4GG9I",Barcelona,Spain,museum,"Main access nº 15, Carrer d'Arístides Maillol, s/n, Les Corts, 08028 Barcelona, Spain",,https://www.fcbarcelona.com/en/tickets/barca-immersive-tour
Barcelona Beach,41.3783631,2.1924661,"Rating: 4.6/5 (0 reviews) | Hours: [{""day"":""Monday"",""hours"":""10:30 AM to 7:30 PM""},{""day"":""Tuesday"",""hours"":""10:30 AM to 7:30 PM""},{""day"":""Wednesday"",""hours"":""10:30 AM to 7:30 PM""},{""day"":""Thursday"",""hours"":""10:30 AM to 7:30 PM""},{""day"":""Friday"",""hours"":""10:30 AM to 7:30 PM""},{""day"":""Saturday"",""hours"":""10:30 AM to 7:30 PM""},{""day"":""Sunday"",""hours"":""10:30 AM to 7:30 PM""}] | Place ID: ChIJcz825dyjpBIRch7kqNoYra0",Barcelona,Spain,landmark,"Platja de, Ciutat Vella, 08003 Barcelona, Spain",,
Barcelona Botanical Garden,41.3621881,2.1574698,"Landscaped international flora, chosen to thrive in Mediterranean conditions, plus sea & city views. | Rating: 4.3/5 (0 reviews) | Hours: [{""day"":""Monday"",""hours"":""10 AM to 5 PM""},{""day"":""Tuesday"",""hours"":""10 AM to 5 PM""},{""day"":""Wednesday"",""hours"":""10 AM to 5 PM""},{""day"":""Thursday"",""hours"":""10 AM to 5 PM""},{""day"":""Friday"",""hours"":""10 AM to 5 PM""},{""day"":""Saturday"",""hours"":""10 AM to 5 PM""},{""day"":""Sunday"",""hours"":""10 AM to 5 PM""}] | Place ID: ChIJT_knTROipBIRB_T0mp4Ka6g",Barcelona,Spain,zoo,"Carrer Doctor Font i Quer, 2, Sants-Montjuïc, 08038 Barcelona, Spain",,https://museuciencies.cat/el-nat/les-seus/jardi-botanic-de-barcelona/
Barcelona Cathedral,41.3834,2.1751,,Barcelona,Spain,,,,
Barcelona Design Museum,41.368711,2.182883,,Barcelona,Spain,,,,
Barcelona Markt,41.3802781,2.1204113,Rating: 4.5/5 (0 reviews) | Place ID: ChIJby0wFACZpBIRWEalkWyBHv4,Barcelona,Spain,market,"Carrer d'Arístides Maillol, 12, Les Corts, 08028 Barcelona, Spain",,
Barcelona Museum of Contemporary Art,41.3754,2.1793,,Barcelona,Spain,,,,
Barcelona Pavilion,41.3683,2.1941,,Barcelona,Spain,,,,
Barcelona Roman city walls,41.3840711,2.1778971,Rating: 4.6/5 (0 reviews) | Place ID: ChIJHQufE_mipBIRXhKyv6uiJNY,Barcelona,Spain,landmark,"Carrer de la Tapineria, 5, 19, Ciutat Vella, 08002 Barcelona, Spain",,
Barcelona Segway Fun Tours,41.3815543,2.179734,"Rating: 4.1/5 (0 reviews) | Hours: [{""day"":""Monday"",""hours"":""10 AM to 7 PM""},{""day"":""Tuesday"",""hours"":""10 AM to 7 PM""},{""day"":""Wednesday"",""hours"":""9 AM to 3 PM""},{""day"":""Thursday"",""hours"":""11:30 AM to 8 PM""},{""day"":""Friday"",""hours"":""10 AM to 8 PM""},{""day"":""Saturday"",""hours"":""10 AM to 9 PM""},{""day"":""Sunday"",""hours"":""10 AM to 7 PM""}] | Place ID: ChIJraw-Lv-ipBIRVJ2tyhFR_OY",Barcelona,Spain,landmark,"Carrer del Correu Vell, Ciutat Vella, 08002 Barcelona, Spain",,https://barcelonasegwayfun.com/?utm_source=Google&utm_medium=mybusiness&utm_campaign=google_my_business
Barcelona Segway Glides,41.3815357,2.1796754,"Rating: 5/5 (0 reviews) | Hours: [{""day"":""Monday"",""hours"":""10 AM to 5:30 PM""},{""day"":""Tuesday"",""hours"":""10 AM to 5:30 PM""},{""day"":""Wednesday"",""hours"":""10 AM to 5:30 PM""},{""day"":""Thursday"",""hours"":""10 AM to 5:30 PM""},{""day"":""Friday"",""hours"":""10 AM to 5:30 PM""},{""day"":""Saturday"",""hours"":""10 AM to 5:30 PM""},{""day"":""Sunday"",""hours"":""10 AM to 5:30 PM""}] | Place ID: ChIJs675JACjpBIRggbjmOxMZTE",Barcelona,Spain,landmark,"Carrer del Correu Vell, 3, Ciutat Vella, 08002 Barcelona, Spain",,https://barcelonasegwayglides.com/
Barcelona Tapas Bar & Restaurant,51.5154196,-0.0755005,"Colourful backdrop of mosaics and original art in Spanish restaurant and bar, part of small chain. | Rating: 4.2/5 (0 reviews) | Hours: [{""day"":""Monday"",""hours"":""11 AM to 12 AM""},{""day"":""Tuesday"",""hours"":""11 AM to 12 AM""},{""day"":""Wednesday"",""hours"":""11 AM to 12 AM""},{""day"":""Thursday"",""hours"":""Closed""},{""day"":""Friday"",""hours"":""11 AM to 12 AM""},{""day"":""Saturday"",""hours"":""11 AM to 12 AM""},{""day"":""Sunday"",""hours"":""Closed""}] | Place ID: ChIJ3XSYrLQcdkgRReXOuEpX9S4",London,United Kingdom,cafe,"Barcelona Tapas Bar & Restaurant 1 Middlesex Street (OFF St Botolph Street, London EC3A 7DT, London E1 7AA, United Kingdom",,http://www.barcelona-tapas.com/
Barcelona viewpoint,41.3695082,2.1549665,"Rating: 4.6/5 (0 reviews) | Hours: [{""day"":""Monday"",""hours"":""Open 24 hours""},{""day"":""Tuesday"",""hours"":""Open 24 hours""},{""day"":""Wednesday"",""hours"":""Open 24 hours""},{""day"":""Thursday"",""hours"":""Open 24 hours""},{""day"":""Friday"",""hours"":""Open 24 hours""},{""day"":""Saturday"",""hours"":""Open 24 hours""},{""day"":""Sunday"",""hours"":""Open 24 hours""}] | Place ID: ChIJK7wXI9yjpBIR76zt8ZqF-2s",Barcelona,Spain,landmark,"Carrer del Mirador del Palau Nacional, 19, Sants-Montjuïc, 08038 Barcelona, Spain",,
Barcelona-Sagrera,41.421667,2.193611,,La Sagrera,Spain,landmark,,,
Barceloneta Beach,41.3757,2.1923,,Barcelona,Spain,,,,
Barceloneta Beach,41.3757,2.1905,,Barcelona,Spain,,,,
Barceloneta Park,41.3825712,2.1926235,"Park featuring soccer & basketball, plus tree-lined walking paths, a bar & views of the ocean. | Rating: 4.3/5 (0 reviews) | Hours: [{""day"":""Monday"",""hours"":""Open 24 hours""},{""day"":""Tuesday"",""hours"":""Open 24 hours""},{""day"":""Wednesday"",""hours"":""Open 24 hours""},{""day"":""Thursday"",""hours"":""Open 24 hours""},{""day"":""Friday"",""hours"":""Open 24 hours""},{""day"":""Saturday"",""hours"":""Open 24 hours""},{""day"":""Sunday"",""hours"":""Open 24 hours""}] | Place ID: ChIJ12cYsQejpBIR4EFRH-H6AA8",Barcelona,Spain,zoo,"Pg. Marítim de la Barceloneta, 15, Ciutat Vella, 08002 Barcelona, Spain",,https://www.barcelona.cat/ca/que-pots-fer-a-bcn/parcs-i-jardins/parc-de-la-barceloneta_96269141552.html
Barclay-Vesey Building,40.713753,-74.012917,,New York,United States,landmark,,,
Barclay-Vesey Building,40.7138579,-74.0133712,Rating: 4.7/5 (0 reviews) | Place ID: ChIJmzRvvd9bwokRC3Aq_P3oBsc,New York,United States,landmark,"140 West St, New York, NY 10007",,
Barclodiad y Gawres,53.2072792,-4.5036113,"Neolithic burial mound with a long passage to the center & distinguishing decorative stones. | Rating: 4.5/5 (0 reviews) | Hours: [{""day"":""Monday"",""hours"":""12 to 4 PM""},{""day"":""Tuesday"",""hours"":""12 to 4 PM""},{""day"":""Wednesday"",""hours"":""12 to 4 PM""},{""day"":""Thursday"",""hours"":""12 to 4 PM""},{""day"":""Friday"",""hours"":""12 to 4 PM""},{""day"":""Saturday"",""hours"":""12 to 4 PM""},{""day"":""Sunday"",""hours"":""12 to 4 PM""}] | Place ID: ChIJO2m6-pe2ZUgRpBcoHi-8iao",Ty Croes,United Kingdom,landmark,"Ty Croes LL63 5TE, United Kingdom",,https://cadw.gov.wales/visit/places-to-visit/barclodiad-y-gawres-chambered-tomb
Barclodiad y Gawres,53.207,-4.50352,,Aberffraw,United Kingdom,cemetery,,,
Bardwell–Ferrant House,44.956111,-93.266389,,Minneapolis,United States,landmark,,,
Bargain Kingdom,51.4623518,0.1092687,"Rating: 3.7/5 (0 reviews) | Hours: [{""day"":""Monday"",""hours"":""9 AM to 6 PM""},{""day"":""Tuesday"",""hours"":""9 AM to 6 PM""},{""day"":""Wednesday"",""hours"":""9 AM to 6 PM""},{""day"":""Thursday"",""hours"":""9 AM to 6 PM""},{""day"":""Friday"",""hours"":""9 AM to 6 PM""},{""day"":""Saturday"",""hours"":""9 AM to 6 PM""},{""day"":""Sunday"",""hours"":""10 AM to 4:30 PM""}] | Place ID: ChIJqWnStMSu2EcRVn6wCgaIEMw",London,United Kingdom,yarn_store,"85 Welling High St, Welling DA16 1TY, United Kingdom",,
Bargello National Museum,43.770398,11.258008,,,,museum,,,
Barista coffee bar,41.8970006,12.4873415,"Rating: 3.1/5 (0 reviews) | Hours: [{""day"":""Monday"",""hours"":""6:30 AM to 8 PM""},{""day"":""Tuesday"",""hours"":""6:30 AM to 8 PM""},{""day"":""Wednesday"",""hours"":""7 AM to 8 PM""},{""day"":""Thursday"",""hours"":""10 AM to 8 PM""},{""day"":""Friday"",""hours"":""6:30 AM to 8 PM""},{""day"":""Saturday"",""hours"":""7 AM to 8 PM""},{""day"":""Sunday"",""hours"":""7 AM to 8 PM""}] | Place ID: ChIJVwEGD0BhLxMR8Ti-0vS9xys",Rome,Italy,cafe,"Via Nazionale, 165, 00184 Roma RM, Italy",,
Barista Map Coffee Roasters,34.6715806,135.4975383,"Rating: 4.7/5 (0 reviews) | Hours: [{""day"":""Monday"",""hours"":""Closed""},{""day"":""Tuesday"",""hours"":""11 AM to 6 PM""},{""day"":""Wednesday"",""hours"":""11 AM to 6 PM""},{""day"":""Thursday"",""hours"":""11 AM to 6 PM""},{""day"":""Friday"",""hours"":""11 AM to 6 PM""},{""day"":""Saturday"",""hours"":""11 AM to 6 PM""},{""day"":""Sunday"",""hours"":""11 AM to 6 PM""}] | Place ID: ChIJ0ZEpK1nnAGARJhRGflf_wC4",Osaka,Japan,cafe,"2 Chome-18-12 Nishishinsaibashi, Chuo Ward, Osaka, 542-0086, Japan",,https://baristamap.coffee/
Bark Street School,41.749444,-71.163889,,Swansea,United States,university,,,
Barlume Downstairs,40.7388596,-73.9895743,"Rating: 4.8/5 (0 reviews) | Hours: [{""day"":""Monday"",""hours"":""Closed""},{""day"":""Tuesday"",""hours"":""6 PM to 12 AM""},{""day"":""Wednesday"",""hours"":""6 PM to 12 AM""},{""day"":""Thursday"",""hours"":""6 PM to 1 AM""},{""day"":""Friday"",""hours"":""6 PM to 1 AM""},{""day"":""Saturday"",""hours"":""6 PM to 1 AM""},{""day"":""Sunday"",""hours"":""Closed""}] | Place ID: ChIJB0DOdfFZwokRi58j04zNH2g",New York,United States,bar,"900 Broadway, New York, NY 10003",,https://www.barlume.com/barlume-downstairs-nyc/
Barnes Cemetery,51.4710065,-0.234877,"Rating: 4.6/5 (0 reviews) | Hours: [{""day"":""Monday"",""hours"":""9:30 AM to 5:45 PM""},{""day"":""Tuesday"",""hours"":""6:45 AM to 4:15 PM""},{""day"":""Wednesday"",""hours"":""6:15 AM to 4:45 PM""},{""day"":""Thursday"",""hours"":""4 AM to 3:45 PM""},{""day"":""Friday"",""hours"":""4:15 AM to 4 PM""},{""day"":""Saturday"",""hours"":""9:15 AM to 4 PM""},{""day"":""Sunday"",""hours"":""10 AM to 2 PM""}] | Place ID: ChIJY53akP8OdkgRt9d1o-jnEmY",London,United Kingdom,cemetery,"Rocks Ln, London SW13 9SA, United Kingdom",,
Barnes Cemetery,51.471012,-0.234479,,London Borough of Richmond upon Thames,United Kingdom,cemetery,,,
Barnweill Church,55.536721,-4.5289427,,South Ayrshire,United Kingdom,cemetery,,,
Barnweill Church “Kirk in the Wood”,55.5367324,-4.528904,Place ID: ChIJc00vEQDTiUgRm4DKXIaHhNQ,Kilmarnock,United Kingdom,landmark,"Craigie, Kilmarnock KA1 5NE, United Kingdom",,
Barolo Palace,-34.609555555,-58.385861111,,Buenos Aires,Argentina,castle,,,
Baron De Hirsch - Back River Cemeteries,45.5001512,-73.6549183,"Rating: 3.8/5 (0 reviews) | Hours: [{""day"":""Monday"",""hours"":""8 AM to 4:30 PM""},{""day"":""Tuesday"",""hours"":""8 AM to 4:30 PM""},{""day"":""Wednesday"",""hours"":""8 AM to 4:30 PM""},{""day"":""Thursday"",""hours"":""8 AM to 4:30 PM""},{""day"":""Friday"",""hours"":""8 AM to 3 PM""},{""day"":""Saturday"",""hours"":""Closed""},{""day"":""Sunday"",""hours"":""8 AM to 4:30 PM""}] | Place ID: ChIJ4X4G5c0ZyUwRFUQbpfdb39k",Montreal,Canada,cemetery,"De La, 5015 Rue de la Savane, Montreal, Quebec H4P 1T7, Canada",,http://barondehirsch.com/
"Baron de Hirsch Cemetery, Halifax",44.659777777,-63.620111111,,Nova Scotia,Canada,cemetery,,,
"Baron de Hirsch Cemetery, Montreal",45.50185,-73.654711111,,Montreal,Canada,cemetery,,,
Barrafina Borough Yards,51.5054735,-0.0920929,"Rating: 4.6/5 (0 reviews) | Hours: [{""day"":""Monday"",""hours"":""12 to 3 PM, 5 to 10 PM""},{""day"":""Tuesday"",""hours"":""12 to 3 PM, 5 to 10 PM""},{""day"":""Wednesday"",""hours"":""12 to 3 PM, 5 to 10 PM""},{""day"":""Thursday"",""hours"":""Closed""},{""day"":""Friday"",""hours"":""12 to 3 PM, 5 to 10 PM""},{""day"":""Saturday"",""hours"":""12 to 3 PM, 5 to 10 PM""},{""day"":""Sunday"",""hours"":""12 to 3 PM, 5 to 10 PM""}] | Place ID: ChIJoVjvfgwDdkgRBu_CYN7tm08",London,United Kingdom,restaurant,"2 Dirty Ln, London SE1 9PA, United Kingdom",,https://www.barrafina.co.uk/
Barrafina Dean Street,51.51411,-0.1326671,"Cosy, diner-style tapas bar with stools for Spanish small plates, served with sherry, cava and more. | Rating: 4.5/5 (0 reviews) | Hours: [{""day"":""Monday"",""hours"":""12 to 3 PM, 5 to 10 PM""},{""day"":""Tuesday"",""hours"":""12 to 3 PM, 5 to 11 PM""},{""day"":""Wednesday"",""hours"":""12 to 3 PM, 5 to 11 PM""},{""day"":""Thursday"",""hours"":""Closed""},{""day"":""Friday"",""hours"":""12 to 3 PM, 5 to 11 PM""},{""day"":""Saturday"",""hours"":""12 to 3 PM, 5 to 11 PM""},{""day"":""Sunday"",""hours"":""12 to 3 PM, 5 to 10 PM""}] | Place ID: ChIJqeYp3NIEdkgRl9hMI8pRL8U",London,United Kingdom,restaurant,"26-27 Dean St, London W1D 3LL, United Kingdom",,http://www.barrafina.co.uk/
Barri Gòtic,41.3834,2.1742,,Barcelona,Spain,,,,
Barrio Barista Espresso Bar,40.730629,-74.06186,"Rating: 5/5 (0 reviews) | Hours: [{""day"":""Monday"",""hours"":""7 AM to 7 PM""},{""day"":""Tuesday"",""hours"":""7 AM to 7 PM""},{""day"":""Wednesday"",""hours"":""7 AM to 12:30 PM""},{""day"":""Thursday"",""hours"":""Closed""},{""day"":""Friday"",""hours"":""7 AM to 7 PM""},{""day"":""Saturday"",""hours"":""7 AM to 4 PM""},{""day"":""Sunday"",""hours"":""7 AM to 4 PM""}] | Place ID: ChIJdY7onjFXwokRx4uPAW4vGh4",New York,United States,cafe,"60 Sip Ave, Jersey City, NJ 07306",,
Barters Busy Bee Cottage,-33.9656494,151.089201,"Rating: 4.7/5 (0 reviews) | Hours: [{""day"":""Monday"",""hours"":""Closed""},{""day"":""Tuesday"",""hours"":""10 AM to 4 PM""},{""day"":""Wednesday"",""hours"":""10 AM to 4 PM""},{""day"":""Thursday"",""hours"":""10 AM to 4 PM""},{""day"":""Friday"",""hours"":""10 AM to 4 PM""},{""day"":""Saturday"",""hours"":""9 AM to 12 PM""},{""day"":""Sunday"",""hours"":""Closed""}] | Place ID: ChIJG39JqaK5EmsRBtmIY2hXwTk",Sydney,Australia,shop,"Unit 4/1-3 Bridge St, Penshurst NSW 2222, Australia",,
Bartlow Hills,52.0796,0.3137,,Bartlow,United Kingdom,cemetery,,,
Bartlow Hills,52.0796547,0.3136319,"Rating: 4.5/5 (0 reviews) | Hours: [{""day"":""Monday"",""hours"":""Open 24 hours""},{""day"":""Tuesday"",""hours"":""Open 24 hours""},{""day"":""Wednesday"",""hours"":""Open 24 hours""},{""day"":""Thursday"",""hours"":""Open 24 hours""},{""day"":""Friday"",""hours"":""Open 24 hours""},{""day"":""Saturday"",""hours"":""Open 24 hours""},{""day"":""Sunday"",""hours"":""Open 24 hours""}] | Place ID: ChIJCwy9oRRh2EcRZ6HkLsgK2Eo",Cambridge,United Kingdom,landmark,"Cambridge CB21 4EN, United Kingdom",,https://historicengland.org.uk/listing/the-list/list-entry/1018974
Bartons,51.5002904,-0.0724227,"Rating: 4.5/5 (0 reviews) | Hours: [{""day"":""Monday"",""hours"":""8 AM to 8 PM""},{""day"":""Tuesday"",""hours"":""8 AM to 8 PM""},{""day"":""Wednesday"",""hours"":""8 AM to 5 PM""},{""day"":""Thursday"",""hours"":""9 AM to 5 PM""},{""day"":""Friday"",""hours"":""7:30 AM to 9 PM""},{""day"":""Saturday"",""hours"":""8 AM to 9 PM""},{""day"":""Sunday"",""hours"":""8 AM to 9 PM""}] | Place ID: ChIJY18_MHoDdkgRz3XiJZOA8vE",London,United Kingdom,cafe,"25 Dockhead, London SE1 2BS, United Kingdom",,http://bartonsuk.com/
Barwari Balendy Architecture & Design GmbH,52.4872221,13.2645883,Rating: 4.6/5 (0 reviews) | Place ID: ChIJG6AyR-BFqEcRYAQFsR9LO8o,Berlin,Germany,shop,"Winkler Str. 26, 14193 Berlin, Germany",,https://bbarchitecture-design.de/
Basalt,52.5506167,13.3608213,"Intimate lounge serving unique craft cocktails in a hip, modern space with tropical plants galore. | Rating: 4.5/5 (0 reviews) | Hours: [{""day"":""Monday"",""hours"":""Closed""},{""day"":""Tuesday"",""hours"":""6 PM to 1 AM""},{""day"":""Wednesday"",""hours"":""Closed""},{""day"":""Thursday"",""hours"":""Closed""},{""day"":""Friday"",""hours"":""6 PM to 2 AM""},{""day"":""Saturday"",""hours"":""6 PM to 2 AM""},{""day"":""Sunday"",""hours"":""Closed""}] | Place ID: ChIJKZS02SpSqEcRM0MKaTQPhkw",Berlin,Germany,cafe,"Utrechter Str. 38, 13347 Berlin, Germany",,https://www.basaltberlin.com/
Basilica and Convent of Santo Domingo,-12.044086111,-77.031927777,,Lima,Peru,church,,,
"Basilica and Convent of Santo Domingo, Lima",-12.0440764,-77.0319351,"16th-century church with saints' relics, plus an attached convent with verdant inner courtyards. | Rating: 4.7/5 (0 reviews) | Hours: [{""day"":""Monday"",""hours"":""10 AM to 6 PM""},{""day"":""Tuesday"",""hours"":""10 AM to 6 PM""},{""day"":""Wednesday"",""hours"":""10 AM to 6 PM""},{""day"":""Thursday"",""hours"":""10 AM to 6 PM""},{""day"":""Friday"",""hours"":""10 AM to 6 PM""},{""day"":""Saturday"",""hours"":""Closed""},{""day"":""Sunday"",""hours"":""Closed""}] | Place ID: ChIJzw2GorXIBZERQS5h9SjHvl4",Lima,Peru,church,"Jirón Camaná 170, Jirón Conde de Superunda 262, Lima 15001, Peru",,http://www.conventosantodomingo.pe/
Basilica and Expiatory Church of the Holy Family,41.40369,2.17433,,Sagrada Família,Spain,church,,,
Basílica Catedral Nuestra Señora de la Altagracia,18.61611111,-68.71694444,,Higüey,Dominican Republic,church,,,
Basilica Cattedrale di Sant'Agata,37.5024087,15.0877191,"Prominent baroque cathedral known for its columned facade, domed roof, frescoes & paintings. | Rating: 4.7/5 (0 reviews) | Hours: [{""day"":""Monday"",""hours"":""7 AM to 7 PM""},{""day"":""Tuesday"",""hours"":""7 AM to 7 PM""},{""day"":""Wednesday"",""hours"":""7 AM to 7 PM""},{""day"":""Thursday"",""hours"":""7 AM to 7 PM""},{""day"":""Friday"",""hours"":""7 AM to 7 PM""},{""day"":""Saturday"",""hours"":""7 AM to 7 PM""},{""day"":""Sunday"",""hours"":""7 AM to 7 PM""}] | Place ID: ChIJP0UjWi7jExMRJytI986aC6g",Catania,Italy,church,"Piazza del Duomo, 95100 Catania CT, Italy",,http://www.cattedralecatania.it/
Basílica de Jesús de Medinaceli,40.4142196,-3.6955393,"Historic Catholic basilica with a Latin-cross plan & a well-known statue of Jesus de Medinaceli. | Rating: 4.7/5 (0 reviews) | Hours: [{""day"":""Monday"",""hours"":""7 AM to 1:30 PM, 5 to 8:30 PM""},{""day"":""Tuesday"",""hours"":""7 AM to 1:30 PM, 5 to 8:30 PM""},{""day"":""Wednesday"",""hours"":""7 AM to 1:30 PM, 5 to 8:30 PM""},{""day"":""Thursday"",""hours"":""7 AM to 1:30 PM, 5 to 8:30 PM""},{""day"":""Friday"",""hours"":""6:30 AM to 10 PM""},{""day"":""Saturday"",""hours"":""8:30 AM to 1:30 PM, 5 to 8:30 PM""},{""day"":""Sunday"",""hours"":""8:30 AM to 1:30 PM, 5 to 8:30 PM""}] | Place ID: ChIJ_Xz5Y4IoQg0RYtvJX7LFuSE",Madrid,Spain,church,"Pl. de Jesús, 2, Centro, 28014 Madrid, Spain",,https://basilicadejesusdemedinaceli.org/
Basílica de la Sagrada Família,41.4036299,2.1743558,"Antoni Gaudí's renowned unfinished church, started in the 1880s, with museum and city views. | Rating: 4.8/5 (0 reviews) | Hours: [{""day"":""Monday"",""hours"":""9 AM to 6 PM""},{""day"":""Tuesday"",""hours"":""9 AM to 6 PM""},{""day"":""Wednesday"",""hours"":""9 AM to 6 PM""},{""day"":""Thursday"",""hours"":""9 AM to 6 PM""},{""day"":""Friday"",""hours"":""9 AM to 6 PM""},{""day"":""Saturday"",""hours"":""9 AM to 6 PM""},{""day"":""Sunday"",""hours"":""10:30 AM to 6 PM""}] | Place ID: ChIJk_s92NyipBIRUMnDG8Kq2Js",Barcelona,Spain,church,"Carrer de Mallorca, 401, Eixample, 08013 Barcelona, Spain",,https://sagradafamilia.org/
Basílica de Santa Maria del Mar,41.3838871,2.1820711,"14th-century, Gothic-style church with soaring columns & 3 naves, plus grand stained glass windows. | Rating: 4.7/5 (0 reviews) | Hours: [""Monday: 10:00 AM – 8:30 PM"",""Tuesday: 10:00 AM – 8:30 PM"",""Wednesday: 10:00 AM – 8:30 PM"",""Thursday: 10:00 AM – 8:30 PM"",""Friday: 10:00 AM – 8:30 PM"",""Saturday: 10:00 AM – 8:30 PM"",""Sunday: 10:00 AM – 8:30 PM""] | Place ID: ChIJV6QNXv6ipBIRYOHAH1yUvLQ",Barcelona,Spain,church,"Plaça de Santa Maria, 1, Ciutat Vella, 08003 Barcelona, Spain",,https://www.santamariadelmarbarcelona.org/
Basílica de Santa Maria del Pi,41.3822413,2.1739186,"Gothic church set on an elegant square, with a grand rose window & views from the bell tower. | Rating: 4.6/5 (0 reviews) | Hours: [""Monday: 9:30 AM – 8:00 PM"",""Tuesday: 9:30 AM – 8:00 PM"",""Wednesday: 9:30 AM – 8:00 PM"",""Thursday: 9:30 AM – 8:00 PM"",""Friday: 9:30 AM – 8:00 PM"",""Saturday: 9:30 AM – 8:00 PM"",""Sunday: 9:00 AM – 6:00 PM""] | Place ID: ChIJx5adlPeipBIRKWosvaChtG0",Barcelona,Spain,church,"Plaça del Pi, 7, Ciutat Vella, 08002 Barcelona, Spain",,http://basilicadelpi.com/
Basilica dels Sants Màrtirs Just i Pastor,41.3827482,2.178051,"Neo-Gothic Catholic church built in 1342 offering a bell tower with observation deck & guided tours. | Rating: 4.6/5 (0 reviews) | Hours: [{""day"":""Monday"",""hours"":""10 AM to 1 PM, 7 to 8:30 PM""},{""day"":""Tuesday"",""hours"":""10 AM to 1 PM""},{""day"":""Wednesday"",""hours"":""10 AM to 1 PM""},{""day"":""Thursday"",""hours"":""10 AM to 1 PM, 7 to 8:30 PM""},{""day"":""Friday"",""hours"":""10 AM to 1 PM, 7 to 8:30 PM""},{""day"":""Saturday"",""hours"":""11 AM to 1 PM, 7 to 8:30 PM""},{""day"":""Sunday"",""hours"":""10 AM to 1 PM""}] | Place ID: ChIJJy9B3PiipBIR5MDxIuw0yxA",Barcelona,Spain,church,"Plaça de Sant Just, s/n, Ciutat Vella, 08002 Barcelona, Spain",,http://www.basilicasantjust.cat/
Basilica di San Lorenzo,43.7749619,11.2538762,"Landmark Renaissance church, burial place of the Medici, with a library designed by Michelangelo. | Rating: 4.6/5 (0 reviews) | Hours: [{""day"":""Monday"",""hours"":""10 AM to 5:30 PM""},{""day"":""Tuesday"",""hours"":""10 AM to 5:30 PM""},{""day"":""Wednesday"",""hours"":""10 AM to 5:30 PM""},{""day"":""Thursday"",""hours"":""10 AM to 5:30 PM""},{""day"":""Friday"",""hours"":""10 AM to 5:30 PM""},{""day"":""Saturday"",""hours"":""10 AM to 5:30 PM""},{""day"":""Sunday"",""hours"":""Closed""}] | Place ID: ChIJa5d9-AJUKhMR7BIYGTLAp-0",Florence,Italy,museum,"Piazza di San Lorenzo, 9, 50123 Firenze FI, Italy",,https://sanlorenzofirenze.it/
Basilica di Sant'Andrea,45.1588911,10.7943879,"Imposing Renaissance church with a vast vaulted interior & reliquary said to contain Christ's blood. | Rating: 4.7/5 (0 reviews) | Hours: [{""day"":""Monday"",""hours"":""8 AM to 7 PM""},{""day"":""Tuesday"",""hours"":""8 AM to 7 PM""},{""day"":""Wednesday"",""hours"":""8 AM to 7 PM""},{""day"":""Thursday"",""hours"":""8 AM to 7 PM""},{""day"":""Friday"",""hours"":""8 AM to 7 PM""},{""day"":""Saturday"",""hours"":""8 AM to 7 PM""},{""day"":""Sunday"",""hours"":""8 AM to 7 PM""}] | Place ID: ChIJ0yZL5RjUgUcR57n5Ecf4TVo",Mantua,Italy,church,"Piazza Andrea Mantegna, 1, 46100 Mantova MN, Italy",,https://parrocchiasantanselmomantova.it/attivita/concattedrale-di-s-andrea/
Basilica di Sant'Eustorgio,45.4539925,9.1810647,"Old, Romanesque-style Catholic church with historic paintings & an attached museum. | Rating: 4.6/5 (0 reviews) | Hours: [{""day"":""Monday"",""hours"":""7:45 AM to 12 PM, 3:30 to 6:30 PM""},{""day"":""Tuesday"",""hours"":""7:45 AM to 12 PM, 3:30 to 6:30 PM""},{""day"":""Wednesday"",""hours"":""7:45 AM to 12 PM, 3:30 to 6:30 PM""},{""day"":""Thursday"",""hours"":""7:45 AM to 12 PM, 3:30 to 6:30 PM""},{""day"":""Friday"",""hours"":""7:45 AM to 12 PM, 3:30 to 6:30 PM""},{""day"":""Saturday"",""hours"":""7:45 AM to 12 PM, 3:30 to 6:30 PM""},{""day"":""Sunday"",""hours"":""7:45 AM to 12 PM, 3:30 to 6:30 PM""}] | Place ID: ChIJ-QGdVAfEhkcR5PXbaEr1tk4",Milan,Italy,church,"Piazza Sant'Eustorgio, 1, 20122 Milano MI, Italy",,http://www.santeustorgio.it/
Basilica di Santa Maria Maggiore,41.8975,12.498611111,,Rome,Italy,church,,,
Basilica in Eger,47.8994,20.37326,,Eger,Hungary,church,,,
Basilica Nuestra Señora De La Altagracia,18.6155552,-68.7168797,"Striking Roman Catholic church with modern design elements & a soaring arch as its spire. | Rating: 4.7/5 (0 reviews) | Hours: [{""day"":""Monday"",""hours"":""7 AM to 7 PM""},{""day"":""Tuesday"",""hours"":""7 AM to 7 PM""},{""day"":""Wednesday"",""hours"":""7 AM to 7 PM""},{""day"":""Thursday"",""hours"":""7 AM to 7 PM""},{""day"":""Friday"",""hours"":""7 AM to 7 PM""},{""day"":""Saturday"",""hours"":""7 AM to 5 PM""},{""day"":""Sunday"",""hours"":""7 AM to 5 PM""}] | Place ID: ChIJhcZoP1-3qI4Ro1wzq7LJidY",Higuey,Dominican Republic,church,"J78M+66H, Higüey 23000, Dominican Republic",,http://www.basilicadehiguey.do/
Basilica of Candelaria,28.35128,-16.369782,,Candelaria,Spain,church,,,
Basilica of Jesus de Medinaceli,40.4142772,-3.6958389,,Madrid,Spain,church,,,
Basilica of Notre Dame of Fourvière,45.7622698,4.822638,"19th-century basilica with 4 octagonal towers, a religious art museum & regular Catholic services. | Rating: 4.8/5 (0 reviews) | Hours: [{""day"":""Monday"",""hours"":""7 AM to 8 PM""},{""day"":""Tuesday"",""hours"":""7 AM to 8 PM""},{""day"":""Wednesday"",""hours"":""7 AM to 8 PM""},{""day"":""Thursday"",""hours"":""7 AM to 8 PM""},{""day"":""Friday"",""hours"":""7 AM to 8 PM""},{""day"":""Saturday"",""hours"":""7 AM to 9 PM""},{""day"":""Sunday"",""hours"":""7 AM to 8 PM""}] | Place ID: ChIJK1Jxdanr9EcRKY5nG3nMG50",Lyon,France,church,"8 Pl. de Fourvière, 69005 Lyon, France",,https://www.fourviere.org/fr/
Basilica of Notre-Dame de Fourvière,45.762291666,4.822555555,,Lyon,France,church,,,
Basilica of Our Lady of Candelaria,28.3512934,-16.3694216,"Church & pilgrimage site with murals, designated a minor basilica by Pope Benedict XVI in 2011. | Rating: 4.7/5 (0 reviews) | Hours: [{""day"":""Monday"",""hours"":""3 to 7:30 PM""},{""day"":""Tuesday"",""hours"":""7:30 AM to 7:30 PM""},{""day"":""Wednesday"",""hours"":""7:30 AM to 7:30 PM""},{""day"":""Thursday"",""hours"":""7:30 AM to 7:30 PM""},{""day"":""Friday"",""hours"":""7:30 AM to 7:30 PM""},{""day"":""Saturday"",""hours"":""7:30 AM to 7:30 PM""},{""day"":""Sunday"",""hours"":""7:30 AM to 7:30 PM""}] | Place ID: ChIJT7F795UtQAwRxLKFDKbYhQo",Candelaria,Spain,church,"Pl. Patrona de Canarias, 1, 38530 Candelaria, Santa Cruz de Tenerife, Spain",,http://obispadodetenerife.es/horarios-misas-tenerife/arciprestazgo-de-guimar/
Basilica of Our Lady of Licheń,52.3233124,18.3578532,"Vast, modern, Catholic pilgrimage site with a golden cupola & a 130m tall free-standing tower. | Rating: 4.6/5 (0 reviews) | Hours: [{""day"":""Monday"",""hours"":""6 AM to 10 PM""},{""day"":""Tuesday"",""hours"":""6 AM to 10 PM""},{""day"":""Wednesday"",""hours"":""6 AM to 10 PM""},{""day"":""Thursday"",""hours"":""6 AM to 10 PM""},{""day"":""Friday"",""hours"":""6 AM to 10 PM""},{""day"":""Saturday"",""hours"":""6 AM to 10 PM""},{""day"":""Sunday"",""hours"":""6 AM to 10 PM""}] | Place ID: ChIJ6a-qkbhJG0cRlguWTiHqdsU",Licheń Stary,Poland,church,"Klasztorna 4, 62-563 Licheń Stary, Poland",,http://www.lichen.pl/
Basilica of Our Lady of Licheń,52.323333333,18.358,,Licheń Stary,Poland,church,,,
Basilica of Our Lady of Mercy,41.3797166,2.1797652,"Statue-topped 1700s church dedicated to the city's patron saint, with lavish, rococo interiors. | Rating: 4.6/5 (0 reviews) | Hours: [{""day"":""Monday"",""hours"":""9 AM to 1:30 PM, 4:30 to 8 PM""},{""day"":""Tuesday"",""hours"":""9 AM to 1:30 PM, 4:30 to 8 PM""},{""day"":""Wednesday"",""hours"":""9 AM to 1:30 PM, 4:30 to 8 PM""},{""day"":""Thursday"",""hours"":""9 AM to 1:30 PM, 4:30 to 8 PM""},{""day"":""Friday"",""hours"":""9 AM to 1:30 PM, 4:30 to 8 PM""},{""day"":""Saturday"",""hours"":""9 AM to 1:30 PM, 4:30 to 8 PM""},{""day"":""Sunday"",""hours"":""9 AM to 1:30 PM, 4:30 to 8 PM""}] | Place ID: ChIJJeErd1aipBIRbYMDeU4nJtA",Barcelona,Spain,church,"Carrer de la Mercè, 1, Ciutat Vella, 08002 Barcelona, Spain",,http://www.basilicadelamerce.cat/
Basilica of Our Lady of Peace of Yamoussoukro,6.811111111,-5.296944444,,,,church,,,
Basilica of Our Lady of the Pillar,41.656882,-0.878327,,Zaragoza,Spain,church,,,
Basilica of Saint Paul outside the Walls,41.858611111,12.477222222,,,,church,,,
Basilica of Saint-Denis,48.935555555,2.359722222,,Saint-Denis,France,church,,,
Basilica of Sainte-Anne-de-Beaupré,47.023851,-70.928975,,Sainte-Anne-de-Beaupré,Canada,church,,,
Basilica of San Clemente,41.889444444,12.4975,,Rome,Italy,church,,,
Basilica of San Clemente,41.8893347,12.4975757,"Unique 300s church built over a pagan temple & Roman house, decorated with frescoes & mosaics. | Rating: 4.7/5 (0 reviews) | Hours: [{""day"":""Monday"",""hours"":""9 AM to 12:30 PM, 2 to 6 PM""},{""day"":""Tuesday"",""hours"":""9 AM to 12:30 PM, 2 to 6 PM""},{""day"":""Wednesday"",""hours"":""9 AM to 12:30 PM, 2 to 6 PM""},{""day"":""Thursday"",""hours"":""9 AM to 12:30 PM, 2 to 6 PM""},{""day"":""Friday"",""hours"":""9 AM to 12:30 PM, 2 to 6 PM""},{""day"":""Saturday"",""hours"":""9 AM to 12:30 PM, 2 to 6 PM""},{""day"":""Sunday"",""hours"":""12 to 6 PM""}] | Place ID: ChIJ6V1-TbhhLxMRUbEhbeY44Zc",Rome,Italy,church,"Piazza di S. Clemente, 00184 Roma RM, Italy",,http://www.basilicasanclemente.com/ita/
Basilica of San Francesco d'Assisi,43.07484,12.60581,,Assisi,Italy,church,,,
Basilica of San Giovanni in Laterano,41.8858811,12.505673,"Landmark cathedral, the Pope's official seat, with ornate 1700s facade & statues of the Apostles. | Rating: 4.8/5 (0 reviews) | Hours: [{""day"":""Monday"",""hours"":""7 AM to 6:30 PM""},{""day"":""Tuesday"",""hours"":""7 AM to 6:30 PM""},{""day"":""Wednesday"",""hours"":""7 AM to 6:30 PM""},{""day"":""Thursday"",""hours"":""7 AM to 6:30 PM""},{""day"":""Friday"",""hours"":""7 AM to 6:30 PM""},{""day"":""Saturday"",""hours"":""7 AM to 6:30 PM""},{""day"":""Sunday"",""hours"":""7 AM to 6:30 PM""}] | Place ID: ChIJc6vKf79hLxMR-JBUkZ--MAE",Rome,Italy,church,"P.za. San Giovanni In Laterano, 00184 Roma RM, Italy",,https://www.basilicasangiovanni.va/it.html
Basilica of San Lorenzo,43.774888888,11.253863888,,Florence,Italy,church,,,
Basilica of Sant'Andrea,45.159011,10.794469,,Mantua,Italy,church,,,
Basilica of Sant'Eustorgio,45.453926,9.181407,,Milan,Italy,church,,,
Basilica of Santa Croce,43.76845,11.26274,,Florence,Italy,church,,,
Basilica of Santa Croce in Florence,43.7685683,11.2622677,"Neo-Gothic Franciscan church known for its Giotto frescoes, plus tombs of Michelangelo & Galileo. | Rating: 4.8/5 (0 reviews) | Hours: [{""day"":""Monday"",""hours"":""9:30 AM to 5:30 PM""},{""day"":""Tuesday"",""hours"":""9:30 AM to 5:30 PM""},{""day"":""Wednesday"",""hours"":""9:30 AM to 5:30 PM""},{""day"":""Thursday"",""hours"":""9:30 AM to 5:30 PM""},{""day"":""Friday"",""hours"":""9:30 AM to 5:30 PM""},{""day"":""Saturday"",""hours"":""9:30 AM to 5:30 PM""},{""day"":""Sunday"",""hours"":""12:30 to 5:45 PM""}] | Place ID: ChIJMcPMIwdUKhMRVRITnGR5go8",Florence,Italy,church,"Piazza di Santa Croce, 16, 50122 Firenze FI, Italy",,https://www.santacroceopera.it/
Basilica of Santa Maria Novella,43.7746346,11.2493859,"15th-century Dominican church including famous frescoes by Gothic & early Renaissance masters. | Rating: 4.7/5 (0 reviews) | Hours: [{""day"":""Monday"",""hours"":""9 AM to 5:30 PM""},{""day"":""Tuesday"",""hours"":""9 AM to 5:30 PM""},{""day"":""Wednesday"",""hours"":""9 AM to 5:30 PM""},{""day"":""Thursday"",""hours"":""9 AM to 5:30 PM""},{""day"":""Friday"",""hours"":""11 AM to 5:30 PM""},{""day"":""Saturday"",""hours"":""9 AM to 5 PM""},{""day"":""Sunday"",""hours"":""1 to 5 PM""}] | Place ID: ChIJYZMhdalWKhMRsm6GSXl05YU",Florence,Italy,museum,"P.za di Santa Maria Novella, 18, 50123 Firenze FI, Italy",,https://www.smn.it/it/
Basilica of Santa Maria Novella,43.7743,11.249367,,Florence,Italy,church,,,
Basilica of St. Castor,50.3622274,7.6044446,"Time-tested sanctuary, the oldest in Koblenz, featuring Romanesque architecture & vaulted ceilings. | Rating: 4.6/5 (0 reviews) | Place ID: ChIJwTcsiZ-oc0ERj-IMzeiDSJE",Koblenz,Germany,church,"Kastorhof 4, 56068 Koblenz, Germany",,http://www.sankt-kastor-koblenz.de/
Basilica of St. John the Baptist,43.365,-5.85083333,,Oviedo City,Spain,church,,,
Basilica of St. Pius X,43.0973661,-0.054535,"Brutalist subterranean church with paintings of the saints & services for thousands of pilgrims. | Rating: 4.8/5 (0 reviews) | Hours: [{""day"":""Monday"",""hours"":""8 AM to 6 PM""},{""day"":""Tuesday"",""hours"":""8 AM to 6 PM""},{""day"":""Wednesday"",""hours"":""8 AM to 6 PM""},{""day"":""Thursday"",""hours"":""8 AM to 6 PM""},{""day"":""Friday"",""hours"":""8 AM to 6 PM""},{""day"":""Saturday"",""hours"":""8 AM to 6 PM""},{""day"":""Sunday"",""hours"":""8 AM to 6 PM""}] | Place ID: ChIJm7WcgSDUVw0RybYogtPHwjI",Lourdes,France,church,"97 Bd Rémi Sempé, 65100 Lourdes, France",,http://www.lourdes-infotourisme.com/web/FR/92-basilique-saint-pie.php
Basilica of St. Pius X,43.097222,-0.053611,,Lourdes,France,church,,,
Basilica of St. Vincent de Paul,40.436836111,-3.694902777,,Madrid,Spain,church,,,
"Basilica of St. Vitus, Mönchengladbach",51.192361111,6.431666666,,Mönchengladbach,Germany,church,,,
Basilica of Superga,45.08062,7.767366,,Turin,Italy,church,,,
Basilica of Superga,45.0808023,7.7676773,"Hilltop baroque basilica with a dome offering Alpine views, burial site of the royal House of Savoy. | Rating: 4.7/5 (0 reviews) | Hours: [{""day"":""Monday"",""hours"":""10 AM to 1:30 PM, 2:30 to 5 PM""},{""day"":""Tuesday"",""hours"":""10 AM to 1:30 PM, 2:30 to 5 PM""},{""day"":""Wednesday"",""hours"":""10 AM to 1:30 PM, 2:30 to 5 PM""},{""day"":""Thursday"",""hours"":""10 AM to 1:30 PM, 2:30 to 5 PM""},{""day"":""Friday"",""hours"":""10 AM to 1:30 PM, 2:30 to 5 PM""},{""day"":""Saturday"",""hours"":""10 AM to 6 PM""},{""day"":""Sunday"",""hours"":""10 AM to 6 PM""}] | Place ID: ChIJ-5Pcj6JziEcRvtPSb0kB6-M",Turin,Italy,church,"Strada Comunale alla Basilica di Superga, 73, 10132 Torino TO, Italy",,http://www.basilicadisuperga.org/
Basilica Palladiana,45.546944444,11.546388888,,Vicenza,Italy,church,,,
Basilika of St. Ludmila,50.075277777,14.437222222,,Prague 2,Czech Republic,landmark,,,
Basilique Cathédrale Saint-Denis,48.9356939,2.3591168,"Imposing Gothic cathedral with ornate 12th-century stained-glass windows & many reclining statues. | Rating: 4.6/5 (0 reviews) | Hours: [{""day"":""Monday"",""hours"":""10 AM to 4:45 PM""},{""day"":""Tuesday"",""hours"":""10 AM to 4:45 PM""},{""day"":""Wednesday"",""hours"":""10 AM to 4:45 PM""},{""day"":""Thursday"",""hours"":""10 AM to 4:45 PM""},{""day"":""Friday"",""hours"":""10 AM to 4:45 PM""},{""day"":""Saturday"",""hours"":""10 AM to 4:45 PM""},{""day"":""Sunday"",""hours"":""10 AM to 4:45 PM""}] | Place ID: ChIJvRj8ErNu5kcRfOX_xli-__I",Saint-Denis,France,museum,"1 Rue de la Légion d'Honneur, 93200 Saint-Denis, France",,https://www.saint-denis-basilique.fr/
Basilique du Sacré-Cœur de Montmartre,48.8867046,2.3431043,"Rating: 4.7/5 (0 reviews) | Hours: [""Monday: 6:30 AM – 10:30 PM"",""Tuesday: 6:30 AM – 10:30 PM"",""Wednesday: 6:30 AM – 10:30 PM"",""Thursday: 6:30 AM – 10:30 PM"",""Friday: 6:30 AM – 10:30 PM"",""Saturday: 6:30 AM – 10:30 PM"",""Sunday: 6:30 AM – 10:30 PM""] | Place ID: ChIJ442GNENu5kcRGYUrvgqHw88",Paris,France,landmark,"35 Rue du Chevalier de la Barre, 75018 Paris, France",,https://www.sacre-coeur-montmartre.com/
Bastard Café,55.6764665,12.5747686,"Rating: 4.7/5 (0 reviews) | Hours: [""Monday: 12:00 PM – 12:00 AM"",""Tuesday: 12:00 PM – 12:00 AM"",""Wednesday: 12:00 PM – 12:00 AM"",""Thursday: 12:00 PM – 12:00 AM"",""Friday: 12:00 PM – 2:00 AM"",""Saturday: 10:00 AM – 2:00 AM"",""Sunday: 10:00 AM – 12:00 AM""] | Price: $$ | Place ID: ChIJU3W3ZBFTUkYRR1sx91IE5FM",Copenhagen,Denmark,cafe,"Rådhusstræde 13, 1466 København K, Denmark",,http://www.bastardcafe.dk/
Bataclan,48.863055555,2.370833333,,,,landmark,,,
Bataclan,48.8631599,2.3707875,"1860s music hall with Chinese-influenced exterior, hosting broad live music programme. | Rating: 4.5/5 (0 reviews) | Place ID: ChIJxx36Vvxt5kcR4eZZh8qyK4U",Paris,France,shop,"50 Bd Voltaire, 75011 Paris, France",,https://www.bataclan.fr/
Batalha Monastery,39.6591585,-8.8255399,"Vast Gothic monastery dating back to medieval times, constructed over a 150 year period. | Rating: 4.7/5 (0 reviews) | Hours: [{""day"":""Monday"",""hours"":""9 AM to 6:30 PM""},{""day"":""Tuesday"",""hours"":""9 AM to 6:30 PM""},{""day"":""Wednesday"",""hours"":""9 AM to 6:30 PM""},{""day"":""Thursday"",""hours"":""9 AM to 6:30 PM""},{""day"":""Friday"",""hours"":""9 AM to 6:30 PM""},{""day"":""Saturday"",""hours"":""9 AM to 6 PM""},{""day"":""Sunday"",""hours"":""9 AM to 6:30 PM""}] | Place ID: ChIJubepyEV1Ig0R6R09p38NEVY",Batalha,Portugal,museum,"Largo Infante Dom Henrique, 2440-109 Batalha, Portugal",,http://www.mosteirobatalha.gov.pt/
Batalha Monastery,39.659166666,-8.826111111,,Batalha,Portugal,church,,,
Batavia Cemetery,42.9933,-78.1714,,Batavia,United States,cemetery,,,
Bath Abbey Cemetery,51.3723109,-2.3490693,Rating: 4.5/5 (0 reviews) | Place ID: ChIJTaS-JDGBcUgRC4hdYaZ341I,Bath,United Kingdom,cemetery,"Perrymead, Bath BA2 5AJ, United Kingdom",,https://www.bathabbey.org/visiting/history/abbey-cemetry/
Bath Abbey Cemetery,51.3701,-2.3481,,Bath and North East Somerset,United Kingdom,cemetery,,,
Bath National Cemetery,42.3490915,-77.351628,"Rating: 4.9/5 (0 reviews) | Hours: [{""day"":""Monday"",""hours"":""8 AM to 4:30 PM""},{""day"":""Tuesday"",""hours"":""8 AM to 4:30 PM""},{""day"":""Wednesday"",""hours"":""8 AM to 4:30 PM""},{""day"":""Thursday"",""hours"":""8 AM to 4:30 PM""},{""day"":""Friday"",""hours"":""8 AM to 4:30 PM""},{""day"":""Saturday"",""hours"":""Closed""},{""day"":""Sunday"",""hours"":""Closed""}] | Place ID: ChIJYypXD6Ov0YkR21ukAPQFq_s",Bath,United States,cemetery,"San Juan Ave, Bath, NY 14810",,http://www.cem.va.gov/CEM/cems/nchp/bath.asp
Bath National Cemetery,42.348727777,-77.351130555,,Bath,United States,cemetery,,,
Batignolles Cemetery,48.897777777,2.316666666,,Paris,France,cemetery,,,
Batita café,45.5142426,9.2125042,"Rating: 4.3/5 (0 reviews) | Hours: [{""day"":""Monday"",""hours"":""7 AM to 5 PM""},{""day"":""Tuesday"",""hours"":""7 AM to 5 PM""},{""day"":""Wednesday"",""hours"":""7 AM to 5 PM""},{""day"":""Thursday"",""hours"":""7 AM to 5 PM""},{""day"":""Friday"",""hours"":""7 AM to 5 PM""},{""day"":""Saturday"",""hours"":""Closed""},{""day"":""Sunday"",""hours"":""Closed""}] | Place ID: ChIJ4zNQ6EfHhkcR73Z_8jKRH28",Milan,Italy,cafe,"Via Piero Caldirola, 9, 20126 Milano MI, Italy",,https://m.facebook.com/Batita-Caf%C3%A8-Milano-1499403940375308/
Batobus Station - Saint-Germain-des-Prés,48.8581807,2.3355879,"Rating: 4.1/5 (0 reviews) | Hours: [{""day"":""Monday"",""hours"":""10 AM to 5 PM""},{""day"":""Tuesday"",""hours"":""10 AM to 5 PM""},{""day"":""Wednesday"",""hours"":""10 AM to 5 PM""},{""day"":""Thursday"",""hours"":""10 AM to 5 PM""},{""day"":""Friday"",""hours"":""10 AM to 7 PM""},{""day"":""Saturday"",""hours"":""10 AM to 7 PM""},{""day"":""Sunday"",""hours"":""10 AM to 7 PM""}] | Place ID: ChIJ-Qe5pSdu5kcRmDzflfHHCgs",Paris,France,landmark,"3 Quai Malaquais, 75006 Paris, France",,https://www.batobus.com/fr/station/saint-germain-des-pres?utm_source=google_my_business&utm_medium=referencement_local&utm_campaign=fiche_batobus_saint_germain
Batou-Kannon,35.7600802,139.5848042,"Rating: 4.3/5 (0 reviews) | Hours: [{""day"":""Monday"",""hours"":""Open 24 hours""},{""day"":""Tuesday"",""hours"":""Open 24 hours""},{""day"":""Wednesday"",""hours"":""Open 24 hours""},{""day"":""Thursday"",""hours"":""Open 24 hours""},{""day"":""Friday"",""hours"":""Open 24 hours""},{""day"":""Saturday"",""hours"":""Open 24 hours""},{""day"":""Sunday"",""hours"":""Open 24 hours""}] | Place ID: ChIJeyWFsTTpGGAR_AvFZY183QE",Tokyo,Japan,landmark,"3 Chome-5 Ōizumigakuenchō, Nerima City, Tokyo 178-0061, Japan",,
Battistero di San Giovanni,43.7233163,10.3941347,"Large medieval baptistery praised for its acoustics, with panels by renowned sculptor Pisano. | Rating: 4.6/5 (0 reviews) | Hours: [{""day"":""Monday"",""hours"":""9 AM to 6 PM""},{""day"":""Tuesday"",""hours"":""9 AM to 6 PM""},{""day"":""Wednesday"",""hours"":""9 AM to 6 PM""},{""day"":""Thursday"",""hours"":""9 AM to 6 PM""},{""day"":""Friday"",""hours"":""9 AM to 6 PM""},{""day"":""Saturday"",""hours"":""9 AM to 6 PM""},{""day"":""Sunday"",""hours"":""9 AM to 6 PM""}] | Place ID: ChIJnSCTwgmR1RIR0PAlUy8cLUk",Pisa,Italy,church,"Piazza del Duomo, 56126 Pisa PI, Italy",,https://www.opapisa.it/visita/battistero/
Battle of Britain Bunker,51.5408983,-0.4650605,"1939 Royal Air Force structure open mainly for pre-booked weekday tours and on some weekends. | Rating: 4.8/5 (0 reviews) | Hours: [{""day"":""Monday"",""hours"":""10 AM to 4:30 PM""},{""day"":""Tuesday"",""hours"":""10 AM to 4:30 PM""},{""day"":""Wednesday"",""hours"":""10 AM to 4:30 PM""},{""day"":""Thursday"",""hours"":""10 AM to 4:30 PM""},{""day"":""Friday"",""hours"":""10 AM to 4:30 PM""},{""day"":""Saturday"",""hours"":""10 AM to 4:30 PM""},{""day"":""Sunday"",""hours"":""10 AM to 4:30 PM""}] | Place ID: ChIJ3VgiQPpxdkgR1vgUXrF-DKM",London,United Kingdom,museum,"Wren Ave, Uxbridge UB10 0GG, United Kingdom",,http://battleofbritainbunker.co.uk/
Battlefield in Tovačov,49.4437,17.2704,,Tovačov I-Město,Czech Republic,cemetery,,,
Bau House Dog Cafe,37.5546,126.9238,,Seoul,South Korea,,,,
Baubliai,55.831085,21.4046299,Place ID: ChIJH2CaKV4f5UYR2mf-P9zh4-I,Kretinga,Lithuania,shop,"Kretinga District Municipality, Lithuania",,
Baublių pilkapynas,55.832744,21.395731,,Kretinga Municipality,Lithuania,cemetery,,,
Bauhaus Archiv Berlin,52.4999,13.3771,,Berlin,Deutschland,,,,
Bauhaus-Archiv,52.5025,13.3877,,Berlin,Deutschland,,,,
Bauhaus-Universität Weimar,50.9793,11.3298,,Weimar,Deutschland,,,,
Bauhaus-Universität Weimar,50.9745633,11.3290866,"Rating: 4.3/5 (0 reviews) | Hours: [{""day"":""Monday"",""hours"":""9 AM to 7 PM""},{""day"":""Tuesday"",""hours"":""9 AM to 7 PM""},{""day"":""Wednesday"",""hours"":""9 AM to 7 PM""},{""day"":""Thursday"",""hours"":""9 AM to 7 PM""},{""day"":""Friday"",""hours"":""9 AM to 7 PM""},{""day"":""Saturday"",""hours"":""9 AM to 4 PM""},{""day"":""Sunday"",""hours"":""9 AM to 4 PM""}] | Place ID: ChIJ9zsMetQapEcRaWgaUvFDkJk",Weimar,Germany,university,"Geschwister-Scholl-Straße 8/15, 99423 Weimar, Germany",,/url?q=https://www.uni-weimar.de/&opi=79508299&sa=U&ved=0ahUKEwj6s9mm3vuRAxWihIkEHZ1-GdEQ61gIFCgQ&usg=AOvVaw2PjUgPTpnHYSDjoVKxZt5s
Bauhaus-Universität Weimar,50.9745,11.3291,,Weimar,Germany,university,,,
Baumgartner Friedhof,48.203055555,16.281944444,,Penzing,Austria,cemetery,,,
Bavelincourt Cimetière communal,49.9869213,2.4599052,Rating: 3/5 (0 reviews) | Place ID: ChIJ__ZpJfmJ50cRfmDqnsVbVNs,Bavelincourt,France,cemetery,"80260 Bavelincourt, France",,
Bavelincourt Communal Cemetery,49.986962,2.460008,,Bavelincourt,France,cemetery,,,
Bavinchove churchyard,50.786825,2.452886,,Bavinchove,France,cemetery,,,
Bay Leaf Spice - Indian Restaurant,-34.0411347,151.1220004,"Rating: 4.8/5 (0 reviews) | Hours: [{""day"":""Monday"",""hours"":""Closed""},{""day"":""Tuesday"",""hours"":""5 to 10 PM""},{""day"":""Wednesday"",""hours"":""Closed""},{""day"":""Thursday"",""hours"":""Closed""},{""day"":""Friday"",""hours"":""5 to 10 PM""},{""day"":""Saturday"",""hours"":""5 to 10 PM""},{""day"":""Sunday"",""hours"":""5 to 10 PM""}] | Place ID: ChIJP5KKZ8zHEmsRyL9vKQH1W1o",Sydney,Australia,restaurant,"Shop no 4/159 Denman Ave, Caringbah NSW 2229, Australia",,
Bay View - New York Bay Cemetery,40.6969696,-74.0844372,"Rating: 2.4/5 (0 reviews) | Hours: [{""day"":""Monday"",""hours"":""9:30 AM to 4 PM""},{""day"":""Tuesday"",""hours"":""9:30 AM to 4 PM""},{""day"":""Wednesday"",""hours"":""9:30 AM to 4 PM""},{""day"":""Thursday"",""hours"":""9:30 AM to 4 PM""},{""day"":""Friday"",""hours"":""9:30 AM to 3:30 PM""},{""day"":""Saturday"",""hours"":""9:30 AM to 4 PM""},{""day"":""Sunday"",""hours"":""9:30 AM to 4 PM""}] | Place ID: ChIJr2AuQgRRwokR5jGppdMcczU",Jersey City,United States,cemetery,"Garfield Ave &, Cator Ave, Jersey City, NJ 07305",,http://bayviewnewyorkbaycemetery.org/
BayArena,51.0382091,7.0022566,"Soccer stadium home of Bayer Leverkusen with a capacity of around 30,000 seated spectators. | Rating: 4.4/5 (0 reviews) | Place ID: ChIJ5Tlh5rsuv0cRiKLz4glV57w",Leverkusen,Germany,shop,"Bismarckstraße 122-124, 51373 Leverkusen, Germany",,https://www.bayer04.de/de-de/page/bayarena
BayArena,51.038255555,7.002205555,,,,landmark,,,
Bayenghem-lès-Seninghem churchyard,50.70021,2.075005,,Bayenghem-lès-Seninghem,France,cemetery,,,
Bayerische Staatsbibliothek,48.1435,11.5784,,Munich,Deutschland,,,,
"Bayside Acacia Cemetery, Queens",40.6775,-73.855,,New York,United States,cemetery,,,
Bayside Cemetery,40.6782895,-73.8558736,"Rating: 4.3/5 (0 reviews) | Hours: [{""day"":""Monday"",""hours"":""Closed""},{""day"":""Tuesday"",""hours"":""Closed""},{""day"":""Wednesday"",""hours"":""Closed""},{""day"":""Thursday"",""hours"":""Closed""},{""day"":""Friday"",""hours"":""Closed""},{""day"":""Saturday"",""hours"":""Closed""},{""day"":""Sunday"",""hours"":""9 AM to 3 PM""}] | Place ID: ChIJu_owzZJdwokRibmugaxgfUA",Ozone Park,United States,cemetery,"80th St, Ozone Park, NY 11417",,
Bayterek,51.128333333,71.430555555,,Astana,Kazakhstan,landmark,,,
Bayview – New York Bay Cemetery,40.6954,-74.0874,,Jersey City,United States,cemetery,,,
Bazár Tapas Bar and Restaurant,40.7444336,-73.9900996,"Serves charcuterie, mains, tapas, wine, and cocktails in a cozy, rustic-chic setting. | Rating: 4.4/5 (0 reviews) | Hours: [{""day"":""Monday"",""hours"":""11 AM to 1 AM""},{""day"":""Tuesday"",""hours"":""11 AM to 1 AM""},{""day"":""Wednesday"",""hours"":""11 AM to 1 AM""},{""day"":""Thursday"",""hours"":""11 AM to 1 AM""},{""day"":""Friday"",""hours"":""11 AM to 1 AM""},{""day"":""Saturday"",""hours"":""10 AM to 11:30 PM""},{""day"":""Sunday"",""hours"":""10 AM to 12 AM""}] | Place ID: ChIJ60c5xqVZwokRv6aAYl8hT6s",New York,United States,cafe,"31 W 26th St #2, New York, NY 10010",,https://www.bazarnomad.com/
Bazelon-McGovern House,38.9306353,-77.0978744,Place ID: ChIJz8rWUQC3t4kRhVATxjhBjIw,"Washington, D.C.",United States,landmark,"3020 University Terrace NW, Washington, DC 20016",,
Bazilika sv. Ludmily,50.0754692,14.4368227,"This neo-Gothic basilica with 2 tall bell towers & a portal with sculptures was completed in 1892. | Rating: 4.8/5 (0 reviews) | Hours: [{""day"":""Monday"",""hours"":""11 AM to 4 PM""},{""day"":""Tuesday"",""hours"":""11 AM to 4 PM""},{""day"":""Wednesday"",""hours"":""11 AM to 4 PM""},{""day"":""Thursday"",""hours"":""11 AM to 4 PM""},{""day"":""Friday"",""hours"":""11 AM to 4:30 PM""},{""day"":""Saturday"",""hours"":""11 AM to 4 PM""},{""day"":""Sunday"",""hours"":""8:30 AM to 12 PM, 3:30 to 5:30 PM""}] | Place ID: ChIJAyNP5o6UC0cRH2h_j6e-d9c",Vinohrady,Czech Republic,church,"Náměstí Míru 1219/2, 120 00 Vinohrady, Czechia",,http://www.ludmilavinohrady.cz/
Bazinghen Churchyard,50.825222,1.66142,,Bazinghen,France,cemetery,,,
Bazylika Archikatedralna pw. św. Stanisława Kostki,51.7489373,19.4596003,"Imposing cathedral known for its Gothic spires, flying buttresses, soaring interior & stained glass. | Rating: 4.7/5 (0 reviews) | Hours: [{""day"":""Monday"",""hours"":""7 AM to 7 PM""},{""day"":""Tuesday"",""hours"":""7 AM to 7 PM""},{""day"":""Wednesday"",""hours"":""7 AM to 7 PM""},{""day"":""Thursday"",""hours"":""7 AM to 7 PM""},{""day"":""Friday"",""hours"":""7 AM to 7 PM""},{""day"":""Saturday"",""hours"":""7 AM to 7 PM""},{""day"":""Sunday"",""hours"":""7 AM to 7 PM""}] | Place ID: ChIJtSZsQts0GkcRMLhAXQ-MuDA",Łódź,Poland,church,"Piotrkowska 265, 90-457 Łódź, Poland",,http://www.katedra.lodz.pl/
BB tetsugakudo jazz & cafe,35.7234062,139.6734967,"Rating: 4.8/5 (0 reviews) | Hours: [{""day"":""Monday"",""hours"":""Closed""},{""day"":""Tuesday"",""hours"":""Closed""},{""day"":""Wednesday"",""hours"":""7 to 11 PM""},{""day"":""Thursday"",""hours"":""7 to 11 PM""},{""day"":""Friday"",""hours"":""7 to 11 PM""},{""day"":""Saturday"",""hours"":""11:30 AM to 3 PM, 6 to 11 PM""},{""day"":""Sunday"",""hours"":""11:30 AM to 3 PM, 6 to 10 PM""}] | Place ID: ChIJL-XWxUbtGGARouKV4tL2WNg",Tokyo,Japan,cafe,"2 Chome-32-18 Matsugaoka, Nakano City, Tokyo 165-0024, Japan",,https://www.instagram.com/bb_tetsugakudo_jazzcafe?igsh=enN4NGk3ZW5kdzdm
bb.q Olive Chicken Café Sasazuka,35.6737459,139.66699,"Rating: 4/5 (0 reviews) | Hours: [{""day"":""Monday"",""hours"":""11 AM to 10 PM""},{""day"":""Tuesday"",""hours"":""11 AM to 10 PM""},{""day"":""Wednesday"",""hours"":""11 AM to 10 PM""},{""day"":""Thursday"",""hours"":""11 AM to 10 PM""},{""day"":""Friday"",""hours"":""11 AM to 10 PM""},{""day"":""Saturday"",""hours"":""11 AM to 10 PM""},{""day"":""Sunday"",""hours"":""11 AM to 10 PM""}] | Place ID: ChIJWQ_O7A7zGGAR9NUrYaxvDJc",Tokyo,Japan,cafe,"Japan, 〒151-0073 Tokyo, Shibuya, Sasazuka, 1 Chome−56−18 京王クラウン街 1階",,https://bbq-olivechickencafe.jp/shop/sasazuka/?utm_source=google&utm_medium=map
BCN Art Recycling,41.3885084,2.1808288,"Rating: 5/5 (0 reviews) | Hours: [{""day"":""Monday"",""hours"":""12 to 10 PM""},{""day"":""Tuesday"",""hours"":""10 AM to 10 PM""},{""day"":""Wednesday"",""hours"":""10 AM to 10 PM""},{""day"":""Thursday"",""hours"":""10 AM to 10 PM""},{""day"":""Friday"",""hours"":""10 AM to 10 PM""},{""day"":""Saturday"",""hours"":""11 AM to 11 PM""},{""day"":""Sunday"",""hours"":""1:30 to 10 PM""}] | Place ID: ChIJ7WMPWOWjpBIRdFgwshpL7JU",Barcelona,Spain,shop,"Carrer del Portal Nou, 14, Ciutat Vella, 08003 Barcelona, Spain",,
Bcn Brunch,41.3894959,2.1468278,"Rating: 4.5/5 (0 reviews) | Hours: [{""day"":""Monday"",""hours"":""8 AM to 12 AM""},{""day"":""Tuesday"",""hours"":""8 AM to 12 AM""},{""day"":""Wednesday"",""hours"":""8 AM to 12 AM""},{""day"":""Thursday"",""hours"":""8 AM to 12 AM""},{""day"":""Friday"",""hours"":""8 AM to 12 AM""},{""day"":""Saturday"",""hours"":""9 AM to 1 AM""},{""day"":""Sunday"",""hours"":""9 AM to 1 AM""}] | Place ID: ChIJN_o60ASjpBIRr09K5qbOjSw",Barcelona,Spain,restaurant,"Carrer del Comte Borrell, 292, Eixample, 08029 Barcelona, Spain",,
BD shop,41.8861686,12.4714321,"Rating: 5/5 (0 reviews) | Hours: [{""day"":""Monday"",""hours"":""9 PM to 12 AM""},{""day"":""Tuesday"",""hours"":""12 AM to 9 PM""},{""day"":""Wednesday"",""hours"":""8 AM to 10 PM""},{""day"":""Thursday"",""hours"":""12 AM to 8:30 PM""},{""day"":""Friday"",""hours"":""12 AM to 8 PM""},{""day"":""Saturday"",""hours"":""Open 24 hours""},{""day"":""Sunday"",""hours"":""Open 24 hours""}] | Place ID: ChIJNdUEWdVhLxMR5mUQUfir1AU",Rome,Italy,shop,"Viale di Trastevere, 68, 00153 Roma RM, Italy",,
BDG Architecten,52.3638127,4.9780797,"Rating: 5/5 (0 reviews) | Hours: [{""day"":""Monday"",""hours"":""Closed""},{""day"":""Tuesday"",""hours"":""Closed""},{""day"":""Wednesday"",""hours"":""Closed""},{""day"":""Thursday"",""hours"":""9 AM to 5 PM""},{""day"":""Friday"",""hours"":""9 AM to 5 PM""},{""day"":""Saturday"",""hours"":""Closed""},{""day"":""Sunday"",""hours"":""Closed""}] | Place ID: ChIJTxLRGCMIxkcR0RXlTljadr8",Amsterdam,Netherlands,shop,"Pedro de Medinalaan 3a, 1086 XK Amsterdam, Netherlands",,http://bdgarchitecten.nl/
Be Mate Trastevere I,41.8861139,12.4718927,Rating: 5/5 (0 reviews) | Place ID: ChIJKfHctJBhLxMRdaCXNq4Zd9g,Rome,Italy,cafe,"Viale di Trastevere, 115, 00153 Roma RM, Italy",,https://bemate.com/en/rome/be-mate-roma-trastevere-i/
Be Mate Trastevere II,41.8859008,12.4717058,Rating: 4.9/5 (0 reviews) | Place ID: ChIJtVSVZ5BhLxMRBqYQA-RbX74,Rome,Italy,cafe,"Viale di Trastevere, 131, 00153 Roma RM, Italy",,https://bemate.com/en/rome/be-mate-roma-trastevere-ii/
Beach and Brew Venice,33.9813019,-118.4634972,"Rating: 4.5/5 (0 reviews) | Hours: [{""day"":""Monday"",""hours"":""3 to 10 PM""},{""day"":""Tuesday"",""hours"":""3 to 10 PM""},{""day"":""Wednesday"",""hours"":""3 to 10 PM""},{""day"":""Thursday"",""hours"":""Closed""},{""day"":""Friday"",""hours"":""3 to 11 PM""},{""day"":""Saturday"",""hours"":""1 to 11 PM""},{""day"":""Sunday"",""hours"":""1 to 10 PM""}] | Place ID: ChIJ4UbWxRu7woARCzoyqycblW4",Venice,United States,cafe,"405 Washington Blvd, Venice, CA 90292",,http://www.beachandbrewvenice.com/
Beach service (beach beds),41.3843798,2.19636,"Rating: 3/5 (0 reviews) | Hours: [{""day"":""Monday"",""hours"":""9 AM to 7 PM""},{""day"":""Tuesday"",""hours"":""9 AM to 7 PM""},{""day"":""Wednesday"",""hours"":""9 AM to 7 PM""},{""day"":""Thursday"",""hours"":""9 AM to 7 PM""},{""day"":""Friday"",""hours"":""9 AM to 7 PM""},{""day"":""Saturday"",""hours"":""9 AM to 7 PM""},{""day"":""Sunday"",""hours"":""9 AM to 7 PM""}] | Place ID: ChIJI3pwdACjpBIRIUEpcUWS95Y",Barcelona,Spain,landmark,"Pg. Marítim de la Barceloneta, 32, Ciutat Vella, 08003 Barcelona, Spain",,
Beach Side Cafe,34.0356336,-118.536482,"Rating: 3.9/5 (0 reviews) | Hours: [{""day"":""Monday"",""hours"":""11 AM to 6 PM""},{""day"":""Tuesday"",""hours"":""11 AM to 7 PM""},{""day"":""Wednesday"",""hours"":""11 AM to 7 PM""},{""day"":""Thursday"",""hours"":""11 AM to 7 PM""},{""day"":""Friday"",""hours"":""11 AM to 7 PM""},{""day"":""Saturday"",""hours"":""11 AM to 7 PM""},{""day"":""Sunday"",""hours"":""11 AM to 7 PM""}] | Place ID: ChIJs7BjhoCjwoARw7SstqhDUyQ",Los Angeles,United States,restaurant,"15700 Pacific Coast Hwy, Pacific Palisades, CA 90272",,
Beachwood Market,34.1200493,-118.3216041,"Petite, old-fashioned neighborhood grocery store near the landmark Hollywood sign. | Rating: 4.5/5 (0 reviews) | Hours: [{""day"":""Monday"",""hours"":""8 AM to 8 PM""},{""day"":""Tuesday"",""hours"":""8 AM to 8 PM""},{""day"":""Wednesday"",""hours"":""8 AM to 8 PM""},{""day"":""Thursday"",""hours"":""8 AM to 8 PM""},{""day"":""Friday"",""hours"":""8 AM to 8 PM""},{""day"":""Saturday"",""hours"":""8 AM to 8 PM""},{""day"":""Sunday"",""hours"":""8 AM to 6 PM""}] | Place ID: ChIJ68tvYG2_woARcs1ZpQhWWN8",Los Angeles,United States,market,"2701 Belden Dr, Los Angeles, CA 90068",,
Beansmith Coffee Roasters (빈스미스 커피 로스터스),37.5389838,126.9693905,"Rating: 4.3/5 (0 reviews) | Hours: [{""day"":""Monday"",""hours"":""8 AM to 9 PM""},{""day"":""Tuesday"",""hours"":""8 AM to 9 PM""},{""day"":""Wednesday"",""hours"":""8 AM to 9 PM""},{""day"":""Thursday"",""hours"":""8 AM to 9 PM""},{""day"":""Friday"",""hours"":""8 AM to 9 PM""},{""day"":""Saturday"",""hours"":""11 AM to 9 PM""},{""day"":""Sunday"",""hours"":""11 AM to 9 PM""}] | Place ID: ChIJOcCsPfejfDURI6VODqTVZNc",Seoul,South Korea,restaurant,"39 Baekbeom-ro 90ra-gil, Yongsan District, Seoul, South Korea",,https://www.instagram.com/beansmithcoffeeroasters
Bear Pond Espresso,35.6683,139.6689,,Tokyo,Japan,,,,
Bear Pond Espresso,35.6683,139.7023,,Tokyo,Japan,,,,
Beat Café,55.666771,12.545801,"Rating: 4.6/5 (0 reviews) | Hours: [""Monday: 10:00 AM – 11:00 PM"",""Tuesday: 10:00 AM – 11:00 PM"",""Wednesday: 10:00 AM – 11:00 PM"",""Thursday: 10:00 AM – 11:00 PM"",""Friday: 10:00 AM – 12:00 AM"",""Saturday: 10:00 AM – 12:00 AM"",""Sunday: 10:00 AM – 10:00 PM""] | Price: $$ | Place ID: ChIJI85wwp1TUkYRsFpAQaZvzh4",Copenhagen,Denmark,bar,"Enghave Pl. 13, st th, 1670 København V, Denmark",,http://www.beatcafe.dk/
Beatrixpark,52.3429769,4.880704,"City park established in the 1930s featuring landscaped paths, a pond, a wading pool & a playground. | Rating: 4.6/5 (0 reviews) | Hours: [{""day"":""Monday"",""hours"":""Open 24 hours""},{""day"":""Tuesday"",""hours"":""Open 24 hours""},{""day"":""Wednesday"",""hours"":""Open 24 hours""},{""day"":""Thursday"",""hours"":""Open 24 hours""},{""day"":""Friday"",""hours"":""Open 24 hours""},{""day"":""Saturday"",""hours"":""Open 24 hours""},{""day"":""Sunday"",""hours"":""Open 24 hours""}] | Place ID: ChIJZX1IThwKxkcRCE88Y-y9Y-o",Amsterdam,Netherlands,zoo,"Diepenbrockstraat 21, 1077 VX Amsterdam, Netherlands",,https://www.amsterdam.nl/toerisme-vrije-tijd/groen-amsterdam/parken/parken-zuid/beatrixpark/
Beatstro,40.8072717,-73.9275778,"Trendy restaurant dishing up Southern & Puerto Rican comfort foods, plus brunch staples & cocktails. | Rating: 4.3/5 (0 reviews) | Hours: [{""day"":""Monday"",""hours"":""Closed""},{""day"":""Tuesday"",""hours"":""Closed""},{""day"":""Wednesday"",""hours"":""Closed""},{""day"":""Thursday"",""hours"":""Closed""},{""day"":""Friday"",""hours"":""4 PM to 12 AM""},{""day"":""Saturday"",""hours"":""12 PM to 12 AM""},{""day"":""Sunday"",""hours"":""12 to 8 PM""}] | Price: $$ | Place ID: ChIJbwExnN31wokRZZ9XeXdpYXg",New York,United States,restaurant,"135 Alexander Ave, Bronx, NY 10454",,https://www.beatstro.com/
BeauJour studio,48.8618491,2.3435847,Rating: 5/5 (0 reviews) | Place ID: ChIJIb9Pc1xv5kcR_4ReV_4vLko,Paris,France,shop,"37 Rue Berger, 75001 Paris, France",,https://beaujourstudio.com/
Beaurains Road Cemetery,50.2706553,2.7841454,"Rating: 5/5 (0 reviews) | Hours: [{""day"":""Monday"",""hours"":""Open 24 hours""},{""day"":""Tuesday"",""hours"":""Open 24 hours""},{""day"":""Wednesday"",""hours"":""Open 24 hours""},{""day"":""Thursday"",""hours"":""Open 24 hours""},{""day"":""Friday"",""hours"":""Open 24 hours""},{""day"":""Saturday"",""hours"":""Open 24 hours""},{""day"":""Sunday"",""hours"":""Open 24 hours""}] | Place ID: ChIJJ-skMYZI3UcRI82JwK9Oz8Q",Beaurains,France,cemetery,"Rte de Bapaume, 62217 Beaurains, France",,
Beaurains Road Cemetery,50.27065,2.78415,,Beaurains,France,cemetery,,,
Bébé Bob,51.512037,-0.1373073,"Rating: 4.7/5 (0 reviews) | Hours: [{""day"":""Monday"",""hours"":""12 to 11 PM""},{""day"":""Tuesday"",""hours"":""12 to 11 PM""},{""day"":""Wednesday"",""hours"":""12 to 11:30 PM""},{""day"":""Thursday"",""hours"":""5 to 10 PM""},{""day"":""Friday"",""hours"":""12 to 11:30 PM""},{""day"":""Saturday"",""hours"":""12 to 11:30 PM""},{""day"":""Sunday"",""hours"":""12 to 5 PM""}] | Place ID: ChIJgSFzojQFdkgR_EsQikKysTk",London,United Kingdom,restaurant,"37 Golden Square, London W1F 9LB, United Kingdom",,https://www.bebebob.com/
Beck's Reformed Church Cemetery,35.758056,-80.225833,,Davidson County,United States,cemetery,,,
Beckenham Crematorium and Cemetery,51.4017,-0.0569444,,London Borough of Bromley,United Kingdom,cemetery,,,
Beckenham Crematorium and Cemetery,51.4028086,-0.0545109,"Rating: 4.1/5 (0 reviews) | Hours: [{""day"":""Monday"",""hours"":""9 AM to 5 PM""},{""day"":""Tuesday"",""hours"":""9 AM to 5 PM""},{""day"":""Wednesday"",""hours"":""9 AM to 5 PM""},{""day"":""Thursday"",""hours"":""9 AM to 5 PM""},{""day"":""Friday"",""hours"":""9 AM to 5 PM""},{""day"":""Saturday"",""hours"":""Closed""},{""day"":""Sunday"",""hours"":""Closed""}] | Place ID: ChIJv3ca1w0BdkgRyAIsnz52bQU",Beckenham,United Kingdom,cemetery,"Elmers End Rd, Beckenham BR3 4TD, United Kingdom",,https://www.dignityfunerals.co.uk/crematoria-and-cemeteries/cemeteries/find-a-cemetery/beckenham-crematorium-and-cemetery/?utm_source=google&utm_medium=listings&utm_content=7557&utm_campaign=local_listings
Becks Reformed Church,35.7567953,-80.2252755,Rating: 5/5 (0 reviews) | Place ID: ChIJR5I90c-bU4gRGvZevgIwK7g,Lexington,United States,church,"2845 Becks Church Rd, Lexington, NC 27292",,http://www.beckschurch.com/
Bedelaars Kerkhof,52.0222456,4.8903198,Place ID: ChIJEdWLOOd5xkcR-t69XKxNzuE,Oudewater,Netherlands,cemetery,"Willeskop, Platmanshoef, 3421 GW Oudewater, Netherlands",,
Bedfords Park Walled Garden,51.6093651,0.1951469,"Rating: 4.6/5 (0 reviews) | Hours: [{""day"":""Monday"",""hours"":""Closed""},{""day"":""Tuesday"",""hours"":""10 AM to 4 PM""},{""day"":""Wednesday"",""hours"":""Closed""},{""day"":""Thursday"",""hours"":""10 AM to 4 PM""},{""day"":""Friday"",""hours"":""Closed""},{""day"":""Saturday"",""hours"":""Closed""},{""day"":""Sunday"",""hours"":""Closed""}] | Place ID: ChIJFygOAq682EcROpNV9sstGnY",London,United Kingdom,park,"Romford RM4 1QL, United Kingdom",,
Bee Sweets Dessert Cafe,-37.8025686,145.3082396,"Rating: 4.8/5 (0 reviews) | Hours: [{""day"":""Monday"",""hours"":""5 to 10 PM""},{""day"":""Tuesday"",""hours"":""5 to 10 PM""},{""day"":""Wednesday"",""hours"":""5 to 10 PM""},{""day"":""Thursday"",""hours"":""5 to 10 PM""},{""day"":""Friday"",""hours"":""5 to 10 PM""},{""day"":""Saturday"",""hours"":""5 to 10 PM""},{""day"":""Sunday"",""hours"":""5 to 10 PM""}] | Place ID: ChIJ9w4JGgA71moR9dlsVoRcgYI",Melbourne,Australia,cafe,"1a/89 Colchester Rd, Kilsyth VIC 3137, Australia",,
Beech Grove Cemetery,40.188889,-85.405556,,Muncie,United States,cemetery,,,
Beech Grove Cemetery,40.1878087,-85.4020443,"Rating: 4/5 (0 reviews) | Hours: [{""day"":""Monday"",""hours"":""8 AM to 4 PM""},{""day"":""Tuesday"",""hours"":""8 AM to 4 PM""},{""day"":""Wednesday"",""hours"":""8 AM to 4 PM""},{""day"":""Thursday"",""hours"":""8 AM to 4 PM""},{""day"":""Friday"",""hours"":""8 AM to 4 PM""},{""day"":""Saturday"",""hours"":""Closed""},{""day"":""Sunday"",""hours"":""Closed""}] | Place ID: ChIJU6Pjjg89FYgR6PxGsQ_va3I",Muncie,United States,cemetery,"1400 W Kilgore Ave, Muncie, IN 47305",,https://beechgrovecemetery.com/
Beechwood Cemetery,45.4469,-75.6599,,Ottawa,Canada,cemetery,,,
Beechwood Cemetery,35.959,-78.913,,Durham,United States,cemetery,,,
"Beechwood Funeral, Cemetery and Cremation Services",45.4448127,-75.6664581,"Leafy 1800s cemetery with stately monuments, a Gothic mausoleum & winding paths popular for jogging. | Rating: 4.6/5 (0 reviews) | Hours: [{""day"":""Monday"",""hours"":""9 AM to 5 PM""},{""day"":""Tuesday"",""hours"":""9 AM to 5 PM""},{""day"":""Wednesday"",""hours"":""9 AM to 5 PM""},{""day"":""Thursday"",""hours"":""9 AM to 5 PM""},{""day"":""Friday"",""hours"":""9 AM to 5 PM""},{""day"":""Saturday"",""hours"":""9 AM to 4 PM""},{""day"":""Sunday"",""hours"":""Closed""}] | Place ID: ChIJ1T5nAkgFzkwRWBEVmCjOdnM",Vanier,Canada,cemetery,"280 Beechwood Ave., Vanier, ON K1L 7P4, Canada",,https://beechwoodottawa.ca/
Beekman Meeting House and Friends' Cemetery,41.633611,-73.766389,,New York,United States,cemetery,,,
Beer Restaurant Stand Beer Tora,34.7404835,135.4999315,"Rating: 4.8/5 (0 reviews) | Hours: [{""day"":""Monday"",""hours"":""5:30 to 11:30 PM""},{""day"":""Tuesday"",""hours"":""5:30 to 11:30 PM""},{""day"":""Wednesday"",""hours"":""Closed""},{""day"":""Thursday"",""hours"":""Closed""},{""day"":""Friday"",""hours"":""5:30 to 11:30 PM""},{""day"":""Saturday"",""hours"":""5:30 to 11:30 PM""},{""day"":""Sunday"",""hours"":""4:30 to 9:30 PM""}] | Place ID: ChIJsyIqF7PlAGAR6NEw2tLTmmI",Osaka,Japan,restaurant,"Japan, 〒532-0002 Osaka, Yodogawa Ward, Higashimikuni, 1 Chome−24−8 SP新大阪外回り店舗 東2",,https://stand-beer-tora.foodre.jp/
Beerivins,41.4076526,2.1739318,"Rating: 4.6/5 (0 reviews) | Hours: [{""day"":""Monday"",""hours"":""7 PM to 1 AM""},{""day"":""Tuesday"",""hours"":""6 PM to 1 AM""},{""day"":""Wednesday"",""hours"":""6 PM to 1 AM""},{""day"":""Thursday"",""hours"":""6 PM to 1 AM""},{""day"":""Friday"",""hours"":""6 PM to 2 AM""},{""day"":""Saturday"",""hours"":""6 PM to 2 AM""},{""day"":""Sunday"",""hours"":""Closed""}] | Place ID: ChIJQ1VZxcSipBIRHy0AgpBy-yI",Barcelona,Spain,cafe,"Carrer de Còrsega, 589, 591, Eixample, 08025 Barcelona, Spain",,
Beetham Tower,53.475278,-2.250278,,Manchester,United Kingdom,landmark,,,
Beetham Tower,53.4755556,-2.2502778,"Iconic skyscraper (almost 169m tall) designed by Ian Simpson, with residential space and a hotel. | Rating: 4.3/5 (0 reviews) | Place ID: ChIJDb3_Y-ixe0gRUK7fUdShS9Q",Manchester,United Kingdom,landmark,"301 Deansgate, Manchester M3 4LQ, United Kingdom",,http://www.beethamtower.org/manchester/
Begraafplaats Buitenveldert,52.34027778,4.86138889,,Amsterdam,Netherlands,cemetery,,,
Begraafplaats Daelwijck,52.1289224,5.0938087,"Rating: 4.5/5 (0 reviews) | Hours: [{""day"":""Monday"",""hours"":""8 AM to 8 PM""},{""day"":""Tuesday"",""hours"":""8 AM to 8 PM""},{""day"":""Wednesday"",""hours"":""8 AM to 8 PM""},{""day"":""Thursday"",""hours"":""8 AM to 8 PM""},{""day"":""Friday"",""hours"":""8 AM to 8 PM""},{""day"":""Saturday"",""hours"":""8 AM to 8 PM""},{""day"":""Sunday"",""hours"":""8 AM to 8 PM""}] | Place ID: ChIJx981xidvxkcR2rdHVVZE4GM",Utrecht,Netherlands,cemetery,"Floridadreef 11, 3565 AM Utrecht, Netherlands",,https://www.utrecht.nl/wonen-en-leven/parken-en-groen/begraafplaatsen/daelwijck/
Begraafplaats Daelwijck,52.12882,5.09651,,Utrecht,Netherlands,cemetery,,,
Begraafplaats Groenesteeg,52.15745,4.50299,,Leiden,Netherlands,cemetery,,,
Begraafplaats Meppelerstraatweg,52.5177133,6.1081839,"Rating: 4.7/5 (0 reviews) | Hours: [{""day"":""Monday"",""hours"":""Open 24 hours""},{""day"":""Tuesday"",""hours"":""Open 24 hours""},{""day"":""Wednesday"",""hours"":""Open 24 hours""},{""day"":""Thursday"",""hours"":""Open 24 hours""},{""day"":""Friday"",""hours"":""Open 24 hours""},{""day"":""Saturday"",""hours"":""Open 24 hours""},{""day"":""Sunday"",""hours"":""Open 24 hours""}] | Place ID: ChIJ_W8k7D3fx0cR6of-qBSrjAs",Zwolle,Netherlands,cemetery,"Meppelerstraatweg, 8014 RT Zwolle, Netherlands",,https://www.zwolle.nl/
Begraafplaats Oostergaarde,52.349392,5.638411,,Harderwijk,Netherlands,cemetery,,,
Begraafplaats Rijnhof,52.09939,4.89977,,Woerden,Netherlands,cemetery,,,
Begraafplaats Sint Barbara,52.093333,5.143333,,Utrecht,Netherlands,cemetery,,,
Begraafplaats Sint Barbara Amsterdam,52.39055556,4.86361111,,Amsterdam,Netherlands,cemetery,,,
Begraafplaats St. Johannes de Doper,52.6987766,5.2229098,Place ID: ChIJW9x2pk6lyEcRgHSSMYQ8HJY,Grootebroek,Netherlands,cemetery,"1613 LJ Grootebroek, Netherlands",,
Begraafplaats Stuiverstraat,51.20889,2.91417,,Ostend,Belgium,cemetery,,,
Begraafplaats van Baarlo,52.7375406,5.9494494,"Hours: [{""day"":""Monday"",""hours"":""Open 24 hours""},{""day"":""Tuesday"",""hours"":""Open 24 hours""},{""day"":""Wednesday"",""hours"":""Open 24 hours""},{""day"":""Thursday"",""hours"":""Open 24 hours""},{""day"":""Friday"",""hours"":""Open 24 hours""},{""day"":""Saturday"",""hours"":""Open 24 hours""},{""day"":""Sunday"",""hours"":""Open 24 hours""}] | Place ID: ChIJZSSqDsVkyEcRRO7PY8ydh7M",Baarlo,Netherlands,cemetery,"8372 VJ Baarlo, Netherlands",,
Begraafplaats van Kassel,50.799212,2.4924276,Rating: 4.7/5 (0 reviews) | Place ID: ChIJ3Y2yoSjl3EcRFdf1sc91A14,Cassel,France,cemetery,"Av. Albert Mahieu, 59670 Cassel, France",,
Behesht-e Zahra,35.5303902,51.3763243,"Rating: 4.2/5 (0 reviews) | Hours: [{""day"":""Monday"",""hours"":""5 AM to 8:30 PM""},{""day"":""Tuesday"",""hours"":""5 AM to 8:30 PM""},{""day"":""Wednesday"",""hours"":""5 AM to 8:30 PM""},{""day"":""Thursday"",""hours"":""5 AM to 8:30 PM""},{""day"":""Friday"",""hours"":""5 AM to 8:30 PM""},{""day"":""Saturday"",""hours"":""5 AM to 8:30 PM""},{""day"":""Sunday"",""hours"":""5 AM to 8:30 PM""}] | Place ID: ChIJS7hhlEj4kT8RyEWNJAPisk8",Tehran,Iran,cemetery,"G9JG+5G4 Behesht-e Zahra, Tehran, Tehran Province, Iran",,
Behesht-e Zahra,35.536269444,51.370183333,,Tehran,Iran,cemetery,,,
Beijing Daxing International Airport,39.509805,116.4105069,Rating: 4.4/5 (0 reviews) | Place ID: ChIJCRqsNMYt8DURAq9Ch_Dec0U,Daxing District,China,shop,"GC56+W6C, Daxing District, Beijing, China",,https://daxing-pkx-airport.com/
Beijing Daxing International Airport,39.511944,116.410556,,Jiuzhou,People's Republic of China,landmark,,,
Beijing National Stadium,39.991544,116.390478,,Aoyuncun Subdistrict,People's Republic of China,stadium,,,
Beijing Television Cultural Center,39.91555556,116.45777778,,Chaoyang District,People's Republic of China,landmark,,,
Beijing Television Cultural Center,39.9172067,116.462978,Place ID: ChIJW5malAKt8TUR9BBh5tj0cZQ,Chaoyang,China,shop,"WF87+V5Q, 南门对面 中央电视台 光华路, Guomao, Chaoyang, Beijing, China",,
Beinecke Rare Book & Manuscript Library,41.31161,-72.92722,,New Haven,United States,library,,,
Beinecke Rare Book and Manuscript Library,41.3115681,-72.9273095,"Yale University's architecturally unique library with a vast collection of rare books & manuscripts. | Rating: 4.9/5 (0 reviews) | Hours: [{""day"":""Monday"",""hours"":""9 AM to 7 PM""},{""day"":""Tuesday"",""hours"":""9 AM to 7 PM""},{""day"":""Wednesday"",""hours"":""10 AM to 7 PM""},{""day"":""Thursday"",""hours"":""9 AM to 7 PM""},{""day"":""Friday"",""hours"":""9 AM to 5 PM""},{""day"":""Saturday"",""hours"":""12 to 5 PM""},{""day"":""Sunday"",""hours"":""12 to 5 PM""}] | Place ID: ChIJtWEfobbZ54kRo9kv8xMGuKE",New Haven,United States,university,"121 Wall St, New Haven, CT 06511",,http://beinecke.library.yale.edu/
Belém Tower,38.6915837,-9.2159773,"Landmark medieval fortified tower on tiny river island with rooftop terrace offering estuary views. | Rating: 4.5/5 (0 reviews) | Hours: [{""day"":""Monday"",""hours"":""Closed""},{""day"":""Tuesday"",""hours"":""9:30 AM to 5:30 PM""},{""day"":""Wednesday"",""hours"":""9:30 AM to 5:30 PM""},{""day"":""Thursday"",""hours"":""9:30 AM to 5:30 PM""},{""day"":""Friday"",""hours"":""9:30 AM to 5:30 PM""},{""day"":""Saturday"",""hours"":""9:30 AM to 5:30 PM""},{""day"":""Sunday"",""hours"":""9:30 AM to 5:30 PM""}] | Place ID: ChIJS5zCw0LLHg0RP1FSz63cAjA",Lisbon,Portugal,landmark,"Av. Brasília, 1400-038 Lisboa, Portugal",,https://www.museusemonumentos.pt/pt/museus-e-monumentos/torre-de-belem
Belém Tower,38.691388888,-9.215833333,,,,landmark,,,
Belén,48.8661451,2.2819717,"Rating: 4.9/5 (0 reviews) | Hours: [""Monday: 8:00 AM – 6:00 PM"",""Tuesday: 8:00 AM – 6:00 PM"",""Wednesday: 8:00 AM – 6:00 PM"",""Thursday: 8:00 AM – 6:00 PM"",""Friday: 8:00 AM – 6:00 PM"",""Saturday: 8:00 AM – 6:00 PM"",""Sunday: 8:00 AM – 2:00 PM""] | Price: $ | Place ID: ChIJo8Scl8Fv5kcRUC_2nlt-fpY",Paris,France,cafe,"4 Rue Gustave Courbet, 75016 Paris, France",,https://www.belenbakerycafe.com/
Belfast Castle,54.6427,-5.94232,,Low Wood,United Kingdom,castle,,,
Belfast Castle,54.6427371,-5.9422475,"Castle within country park, with adventure playground, visitor centre, antiques shop and restaurant. | Rating: 4.5/5 (0 reviews) | Hours: [{""day"":""Monday"",""hours"":""9 AM to 6 PM""},{""day"":""Tuesday"",""hours"":""9 AM to 6 PM""},{""day"":""Wednesday"",""hours"":""9 AM to 6 PM""},{""day"":""Thursday"",""hours"":""9 AM to 6 PM""},{""day"":""Friday"",""hours"":""9 AM to 6 PM""},{""day"":""Saturday"",""hours"":""9 AM to 6 PM""},{""day"":""Sunday"",""hours"":""9 AM to 6 PM""}] | Place ID: ChIJR65g9oenYUgRJxc1b0terXo",Belfast,United Kingdom,castle,"Antrim Rd, Belfast BT15 5GR, United Kingdom",,https://www.belfastcity.gov.uk/belfastcastle
Belfast City Cemetery,54.589722222,-5.979166666,,Belfast,United Kingdom,cemetery,,,
Belfast City Cemetery,54.5884872,-5.9705506,"Rating: 3.9/5 (0 reviews) | Hours: [{""day"":""Monday"",""hours"":""8 AM to 4 PM""},{""day"":""Tuesday"",""hours"":""8 AM to 4 PM""},{""day"":""Wednesday"",""hours"":""8 AM to 4 PM""},{""day"":""Thursday"",""hours"":""8 AM to 4 PM""},{""day"":""Friday"",""hours"":""8 AM to 4 PM""},{""day"":""Saturday"",""hours"":""8 AM to 4 PM""},{""day"":""Sunday"",""hours"":""10 AM to 4 PM""}] | Place ID: ChIJ5WMN4YMIYUgRVCVtpvYKtbM",Belfast,United Kingdom,cemetery,"511 Falls Rd, Belfast BT12 6DE, United Kingdom",,https://www.belfastcity.gov.uk/citycemetery
Belfry de l'Église Saint-Germain l'Auxerrois de Paris,48.8598307,2.3409612,Rating: 4.7/5 (0 reviews) | Place ID: ChIJz4iTEyFu5kcRslKSpxp0B60,Paris,France,landmark,"2A Pl. du Louvre, 75001 Paris, France",,http://patrimoine-horloge.fr/ha-paris1-beffroi.html
Belga Queen,50.8503107,4.3547205,"Chic brasserie, in a former bank, with a stained-glass ceiling & lounge area with leather armchairs. | Rating: 4.2/5 (0 reviews) | Hours: [{""day"":""Monday"",""hours"":""12 to 2:30 PM, 6 to 10 PM""},{""day"":""Tuesday"",""hours"":""12 to 2:30 PM, 6 to 10 PM""},{""day"":""Wednesday"",""hours"":""12 to 2:30 PM, 6 to 10 PM""},{""day"":""Thursday"",""hours"":""12 to 2:30 PM, 6 to 10 PM""},{""day"":""Friday"",""hours"":""12 to 2:30 PM, 6 to 11 PM""},{""day"":""Saturday"",""hours"":""12 to 2:30 PM, 6 to 11 PM""},{""day"":""Sunday"",""hours"":""12 to 2:30 PM, 6 to 10 PM""}] | Place ID: ChIJecPS44DDw0cRX0RPlDo6eO4",Brussels,Belgium,restaurant,"Rue du Fossé aux Loups 32, 1000 Bruxelles, Belgium",,http://www.belgaqueenbrussels.be/
Belga Queen,50.850336111,4.354713888,,City of Brussels,Belgium,landmark,,,
Belgian Military Cemetery Keiem,51.0866058,2.8858324,"Rating: 4.4/5 (0 reviews) | Hours: [{""day"":""Monday"",""hours"":""Open 24 hours""},{""day"":""Tuesday"",""hours"":""Open 24 hours""},{""day"":""Wednesday"",""hours"":""Open 24 hours""},{""day"":""Thursday"",""hours"":""Open 24 hours""},{""day"":""Friday"",""hours"":""Open 24 hours""},{""day"":""Saturday"",""hours"":""Open 24 hours""},{""day"":""Sunday"",""hours"":""Open 24 hours""}] | Place ID: ChIJxdOv8Ouw3EcRdPzgOUdO1d8",Diksmuide,Belgium,cemetery,"Keiemdorpstraat 171, 8600 Diksmuide, Belgium",,http://www.wo1.be/nl/db-items/belgische-militaire-begraafplaats-keiem
Belgian Military Cemetery Keiem,51.08639,2.88528,,Diksmuide,Belgium,cemetery,,,
Belgrade New Cemetery,44.80944444,20.48722222,,Belgrade,Serbia,cemetery,,,
Bell's Hill Burial Ground,51.649,-0.215,,London Borough of Barnet,United Kingdom,cemetery,,,
Bellacourt Military Cemetery,50.231594,2.674363,,Rivière,France,cemetery,,,
Bellacourt Military Cemetery,50.2318098,2.6742764,Rating: 5/5 (0 reviews) | Place ID: ChIJJVuhggBE3UcRLLHAbez_PLo,Rivière,France,cemetery,"62173 Rivière, France",,http://www.ww1cemeteries.com/
Bellaombra de can Rosés,41.3881518,2.1348392,Rating: 5/5 (0 reviews) | Place ID: ChIJPxX5baCZpBIRAZ5kXLeYSuI,Barcelona,Spain,park,"Plaça de Can Rosés, Les Corts, 08029 Barcelona, Spain",,
Bellbird Walking Track,-33.9519221,150.905818,Rating: 4.4/5 (0 reviews) | Place ID: ChIJFaos1uGUEmsRoAEwYEcdvYQ,Sydney,Australia,landmark,"Bellbird Walking Track, Casula NSW 2170, Australia",,https://www.nationalparks.nsw.gov.au/things-to-do/walking-tracks/bellbird-walking-track?utm_source=google&utm_medium=organic&utm_campaign=Google%20My%20Business%20Page
Belle Âme Cafe,40.7347411,-74.0627298,"Rating: 4.7/5 (0 reviews) | Hours: [{""day"":""Monday"",""hours"":""7 AM to 2 PM""},{""day"":""Tuesday"",""hours"":""7 AM to 2 PM""},{""day"":""Wednesday"",""hours"":""7 AM to 2 PM""},{""day"":""Thursday"",""hours"":""8 AM to 2 PM""},{""day"":""Friday"",""hours"":""7 AM to 2 PM""},{""day"":""Saturday"",""hours"":""8 AM to 3 PM""},{""day"":""Sunday"",""hours"":""8 AM to 3 PM""}] | Place ID: ChIJtWXaygVXwokRZQo2HpWBYNU",New York,United States,cafe,"76 Cottage St, Jersey City, NJ 07306",,http://www.belleamecafe.com/
Belle Epoque Patisserie,51.5522222,-0.0847222,"French bakery and cafe selling fresh and made-to-order cakes, plus croissants, quiches and coffee. | Rating: 4.2/5 (0 reviews) | Hours: [{""day"":""Monday"",""hours"":""8 AM to 5 PM""},{""day"":""Tuesday"",""hours"":""8 AM to 5 PM""},{""day"":""Wednesday"",""hours"":""8 AM to 5 PM""},{""day"":""Thursday"",""hours"":""Closed""},{""day"":""Friday"",""hours"":""8 AM to 6 PM""},{""day"":""Saturday"",""hours"":""9 AM to 6 PM""},{""day"":""Sunday"",""hours"":""9 AM to 5 PM""}] | Place ID: ChIJ1eTme4YcdkgRgnFF0EUAOsE",London,United Kingdom,cafe,"37 Newington Grn, Newington Green, London N16 9PR, United Kingdom",,http://www.belleepoque.co.uk/
Belle Epoque Patisserie,51.5427793,-0.1028903,"Designer venue for a range of carefully created patisserie, breads and outside catering. | Rating: 4.3/5 (0 reviews) | Hours: [{""day"":""Monday"",""hours"":""8 AM to 6 PM""},{""day"":""Tuesday"",""hours"":""8 AM to 6 PM""},{""day"":""Wednesday"",""hours"":""8 AM to 5 PM""},{""day"":""Thursday"",""hours"":""Closed""},{""day"":""Friday"",""hours"":""8 AM to 7 PM""},{""day"":""Saturday"",""hours"":""9 AM to 7 PM""},{""day"":""Sunday"",""hours"":""9 AM to 6 PM""}] | Place ID: ChIJBZ-xtGUbdkgRy7zVb6rdsHI",London,United Kingdom,bakery,"267 Upper St, London N1 2UQ, United Kingdom",,http://belleepoque.co.uk/
Belle Harbor Foods,40.5781273,-73.8494107,"Rating: 4.6/5 (0 reviews) | Hours: [{""day"":""Monday"",""hours"":""7 AM to 7:30 PM""},{""day"":""Tuesday"",""hours"":""7 AM to 7:30 PM""},{""day"":""Wednesday"",""hours"":""7 AM to 7:30 PM""},{""day"":""Thursday"",""hours"":""7 AM to 7:30 PM""},{""day"":""Friday"",""hours"":""7 AM to 7:30 PM""},{""day"":""Saturday"",""hours"":""7 AM to 7:30 PM""},{""day"":""Sunday"",""hours"":""7 AM to 7 PM""}] | Place ID: ChIJ3V2ZZ4dCwokREakXrkiM3eg",New York,United States,shop,"4-13 Beach 129th St, Rockaway Park, NY 11694",,http://belle-inc.keeq.io/
Bellefontaine Cemetery,38.6974,-90.2336,,St. Louis,United States,cemetery,,,
Bellefontaine Cemetery and Arboretum,38.690677,-90.235087,"Rating: 4.8/5 (0 reviews) | Hours: [{""day"":""Monday"",""hours"":""8 AM to 4:30 PM""},{""day"":""Tuesday"",""hours"":""8 AM to 4:30 PM""},{""day"":""Wednesday"",""hours"":""8 AM to 4:30 PM""},{""day"":""Thursday"",""hours"":""8 AM to 4:30 PM""},{""day"":""Friday"",""hours"":""8 AM to 4:30 PM""},{""day"":""Saturday"",""hours"":""8 AM to 4:30 PM""},{""day"":""Sunday"",""hours"":""8 AM to 4:30 PM""}] | Place ID: ChIJgYMTIHlL34cRMGraOAiOd-k",St. Louis,United States,cemetery,"4947 W Florissant Ave, St. Louis, MO 63115",,http://bellefontainecemetery.org/
Belles Beach House,33.9869872,-118.4730863,"Cocktails & Hawaiian grub served in a relaxed tropical-style space with plants & wicker furnishings. | Rating: 4.3/5 (0 reviews) | Hours: [{""day"":""Monday"",""hours"":""12 to 10 PM""},{""day"":""Tuesday"",""hours"":""12 to 10 PM""},{""day"":""Wednesday"",""hours"":""12 to 10 PM""},{""day"":""Thursday"",""hours"":""12 to 10 PM""},{""day"":""Friday"",""hours"":""12 PM to 2 AM""},{""day"":""Saturday"",""hours"":""11 AM to 2 AM""},{""day"":""Sunday"",""hours"":""11 AM to 10 PM""}] | Place ID: ChIJBQzSwKO7woAR0v_z1Ae-rOc",Los Angeles,United States,restaurant,"24 Windward Ave, Los Angeles, CA 90291",,https://www.bellesbeachhouse.com/
Belleville Cemetery,44.1409,-77.4189,,Belleville,Canada,cemetery,,,
Belleville Cemetery,44.1409376,-77.4180967,"Rating: 2.9/5 (0 reviews) | Hours: [{""day"":""Monday"",""hours"":""9 AM to 4 PM""},{""day"":""Tuesday"",""hours"":""9 AM to 4 PM""},{""day"":""Wednesday"",""hours"":""9 AM to 4 PM""},{""day"":""Thursday"",""hours"":""9 AM to 4 PM""},{""day"":""Friday"",""hours"":""9 AM to 4 PM""},{""day"":""Saturday"",""hours"":""Closed""},{""day"":""Sunday"",""hours"":""Closed""}] | Place ID: ChIJv80a79s61okR9I7Sl_sejRQ",Belleville,Canada,cemetery,"631 Dundas St W, Belleville, ON K8N 4Z3, Canada",,https://bellevillecemetery.ca/
Bellevue Cemetery,42.7086502,-71.1871034,"Rating: 4.6/5 (0 reviews) | Hours: [{""day"":""Monday"",""hours"":""8 AM to 4 PM""},{""day"":""Tuesday"",""hours"":""8 AM to 4 PM""},{""day"":""Wednesday"",""hours"":""8 AM to 4 PM""},{""day"":""Thursday"",""hours"":""8 AM to 4 PM""},{""day"":""Friday"",""hours"":""8 AM to 4 PM""},{""day"":""Saturday"",""hours"":""Closed""},{""day"":""Sunday"",""hours"":""Closed""}] | Place ID: ChIJc6cf25wH44kR_RwArbaAIts",Lawrence,United States,cemetery,"170 May St, Lawrence, MA 01841",,https://www.cityoflawrence.com/155/Bellevue-Cemetery
Bellevue Cemetery,42.710556,-71.186111,,Lawrence,United States,cemetery,,,
Bellevue Palace,52.5175726,13.3527928,"Neoclassical, white palatial home of the German president with 3 wings built in 1786. | Rating: 4.5/5 (0 reviews) | Place ID: ChIJl9MERa9RqEcRqVkCruJWnf4",Berlin,Germany,castle,"Spreeweg 1, 10557 Berlin, Germany",,https://www.bundespraesident.de/DE/Die-Amtssitze/Schloss-Bellevue/schloss-bellevue-node.html
Bellevue Palace,52.5175,13.353333333,,Bezirk Mitte,Germany,castle,,,
Bells Hill Burial Ground,51.6486582,-0.2144713,Rating: 3.3/5 (0 reviews) | Place ID: ChIJ8ebZ96IXdkgRWx1fz8Xv01M,Barnet,United Kingdom,cemetery,"Spring Cl, Barnet EN5 2UR, United Kingdom",,http://www.ststephenbarnet.org.uk/bells-hill-burial-ground.html
Belltel Lofts,40.6925594,-73.9851308,Rating: 4.5/5 (0 reviews) | Place ID: ChIJMSGtcktawokRCO1ld-bL19E,Brooklyn,United States,shop,"365 Bridge St, Brooklyn, NY 11201",,
BellTel Lofts,40.6925,-73.985,,New York,United States,landmark,,,
Bellu Cemetery,44.4031443,26.0980108,"Landmark 1800s cemetery with ornate funerary sculptures & the tombs of many illustrious Romanians. | Rating: 4.5/5 (0 reviews) | Hours: [{""day"":""Monday"",""hours"":""8 AM to 5 PM""},{""day"":""Tuesday"",""hours"":""8 AM to 5 PM""},{""day"":""Wednesday"",""hours"":""8 AM to 5 PM""},{""day"":""Thursday"",""hours"":""8 AM to 5 PM""},{""day"":""Friday"",""hours"":""8 AM to 5 PM""},{""day"":""Saturday"",""hours"":""7 AM to 8 PM""},{""day"":""Sunday"",""hours"":""7 AM to 8 PM""}] | Place ID: ChIJT6ZYjaz_sUARpfwFe5s8K3k",Bucharest,Romania,cemetery,"Calea Șerban Vodă 249, București 040208, Romania",,http://accu.ro/cimitirul-bellu/
Bellu Cemetery,44.403888888,26.1,,Bucharest,Romania,cemetery,,,
Bellus,41.3993781,2.1794627,"Rating: 5/5 (0 reviews) | Hours: [{""day"":""Monday"",""hours"":""Closed""},{""day"":""Tuesday"",""hours"":""Closed""},{""day"":""Wednesday"",""hours"":""10 AM to 6 PM""},{""day"":""Thursday"",""hours"":""10 AM to 6 PM""},{""day"":""Friday"",""hours"":""10 AM to 6 PM""},{""day"":""Saturday"",""hours"":""10 AM to 6 PM""},{""day"":""Sunday"",""hours"":""10 AM to 6 PM""}] | Place ID: ChIJQ3HJQ7-jpBIR8KFx1UqhTc4",Barcelona,Spain,bakery,"Carrer de la Diputació, 420, Eixample, 08013 Barcelona, Spain",,
Belvedere,48.1934,16.380519444,,Landstraße,Austria,landmark,,,
Belvédère Casino Mauresque,44.6591944,-1.172904,Rating: 4.8/5 (0 reviews) | Place ID: ChIJ-c2ZMVCfVA0Rnt--ELOG0Mo,Arcachon,France,landmark,"45 Av. Régnauld, 33120 Arcachon, France",,
Belvedere Castle,40.7794302,-73.9690677,"Gothic & Romanesque 1872 castle set on Vista Rock (the park's 2nd highest point) with park views. | Rating: 4.5/5 (0 reviews) | Hours: [{""day"":""Monday"",""hours"":""10 AM to 5 PM""},{""day"":""Tuesday"",""hours"":""10 AM to 5 PM""},{""day"":""Wednesday"",""hours"":""10 AM to 5 PM""},{""day"":""Thursday"",""hours"":""10 AM to 5 PM""},{""day"":""Friday"",""hours"":""10 AM to 5 PM""},{""day"":""Saturday"",""hours"":""10 AM to 5 PM""},{""day"":""Sunday"",""hours"":""10 AM to 5 PM""}] | Place ID: ChIJFXzf4e9YwokRtXgpty_i74g",New York,United States,castle,"New York, NY 10024",,https://www.centralparknyc.org/locations/belvedere-castle
Belvedere Castle on the Pfingstberg,52.4189122,13.0588586,"Classically styled 19th-century belvedere, with landscaped gardens & stunning views from the towers. | Rating: 4.6/5 (0 reviews) | Hours: [{""day"":""Monday"",""hours"":""10 AM to 5 PM""},{""day"":""Tuesday"",""hours"":""Closed""},{""day"":""Wednesday"",""hours"":""10 AM to 5 PM""},{""day"":""Thursday"",""hours"":""10 AM to 5 PM""},{""day"":""Friday"",""hours"":""10 AM to 5 PM""},{""day"":""Saturday"",""hours"":""10 AM to 6 PM""},{""day"":""Sunday"",""hours"":""10 AM to 6 PM""}] | Place ID: ChIJD_0aS2P2qEcR925VvVXI0rI",Potsdam,Germany,museum,"Pfingstberg, Neuer Garten, 14469 Potsdam, Germany",,http://www.pfingstberg.de/
Belvedere di Anguillara,42.0943627,12.2695878,Rating: 5/5 (0 reviews) | Place ID: ChIJJdx4FpVFLxMRvPFa9N2s-s4,Rome,Italy,landmark,"00061 Anguillara Sabazia, Metropolitan City of Rome Capital, Italy",,
BELVEDERE DI ROMA,42.0398502,12.5917369,Place ID: ChIJdyUQf0NvLxMRCSBeyinaZaA,Rome,Italy,park,"Via di Valle Ricca, 00138 Roma RM, Italy",,
Belvedere on the Pfingstberg,52.4187,13.059,,Nördliche Vorstädte,Germany,landmark,,,
Belvedere Palace,48.1914751,16.3809322,"Baroque, 18th-century palaces housing art from Middle Ages to today, with notable Klimt collection. | Rating: 4.7/5 (0 reviews) | Hours: [{""day"":""Monday"",""hours"":""9 AM to 6 PM""},{""day"":""Tuesday"",""hours"":""9 AM to 6 PM""},{""day"":""Wednesday"",""hours"":""9 AM to 6 PM""},{""day"":""Thursday"",""hours"":""9 AM to 6 PM""},{""day"":""Friday"",""hours"":""9 AM to 6 PM""},{""day"":""Saturday"",""hours"":""9 AM to 6 PM""},{""day"":""Sunday"",""hours"":""9 AM to 6 PM""}] | Place ID: ChIJpZ4LAn0HbUcRB3aToFL8ZUo",Vienna,Austria,museum,"1030 Vienna, Austria",,https://www.belvedere.at/
Belvedere Primo Meridiano d'Italia,41.9214534,12.4522167,"Rating: 4.6/5 (0 reviews) | Hours: [{""day"":""Monday"",""hours"":""Open 24 hours""},{""day"":""Tuesday"",""hours"":""Open 24 hours""},{""day"":""Wednesday"",""hours"":""Open 24 hours""},{""day"":""Thursday"",""hours"":""Open 24 hours""},{""day"":""Friday"",""hours"":""Open 24 hours""},{""day"":""Saturday"",""hours"":""Open 24 hours""},{""day"":""Sunday"",""hours"":""Open 24 hours""}] | Place ID: ChIJAfEx05FgLxMR8wbOQDwTz9s",Rome,Italy,landmark,"00136 Rome, Metropolitan City of Rome Capital, Italy",,
Belvedere Summerhouse,40.778943,-73.9696474,Rating: 4.8/5 (0 reviews) | Place ID: ChIJNRzWp7hZwokRrh_w0YgQGRk,New York,United States,landmark,"New York, NY 10024",,http://centralparknyc.org/
Belview,44.6052358,-95.3294509,Place ID: ChIJ292pWCK_iocRAtNa41yZCXM,Belview,United States,shop,Minnesota 56214,,
Belview,50.840879859,4.379193016,,City of Brussels,Belgium,landmark,,,
Belvoir Castle,52.8945,-0.78256,,Belvoir,United Kingdom,castle,,,
Belvoir Castle,52.8946807,-0.7824119,"Early 19th-century bastion with gilded salons, tapestries, jousting tournaments and costumed guides. | Rating: 4.4/5 (0 reviews) | Place ID: ChIJC0em2McyeEgRx-x7_e7YN6I",Grantham,United Kingdom,castle,"Woolsthorpe Rd, Grantham NG32 1PA, United Kingdom",,https://www.belvoircastle.com/
Belweder,52.213055555,21.027777777,,Śródmieście,Poland,landmark,,,
