name,latitude,longitude,description,city,country,category,address,phone,website
"Ak Bars Arena",55.821,49.161,"",,,stadium,"",,
"Church of Santa Cruz",40.414527777,-3.70525,"",Madrid,Spain,church,"",,
"Old Cemetery",49.323,8.43027,"",Speyer,Germany,cemetery,"",,
"Seat of the European Central Bank",50.109438888,8.7025,"",Frankfurt-Bornheim/Ostend,Germany,landmark,"",,
"Pulkovo 1973 terminal",59.79787,30.26812,"",Moskovsky District, Saint Petersburg,Russia,landmark,"",,
"Mysselhøj",55.616287771,11.958472998,"",Lejre Municipality,Denmark,cemetery,"",,
"Burj Khalifa",25.197222222,55.274166666,"",Dubai,United Arab Emirates,landmark,"",,
"Chellah",34.00666667,-6.82027778,"",Rabat,Morocco,cemetery,"",,
"Nunhead Cemetery",51.46423,-0.05304,"",London Borough of Southwark,United Kingdom,cemetery,"",,
"St. Bruno",51.2661,6.7755,"",Unterrath,Germany,landmark,"",,
"New Perry Hotel",32.45666667,-83.73333333,"",Perry,United States,hotel,"",,
"Argoules Communal Cemetery",50.336724,1.830791,"",Argoules,France,cemetery,"",,
"Museum of Fine Arts Boston",42.339444444,-71.094166666,"",Boston,United States,museum,"",,
"Palazzo delle Poste",46.066947,11.123736,"",Trento,Italy,castle,"",,
"Lugnarohögen",56.412099,13.009117,"",Laholm Municipality,Sweden,cemetery,"",,
"Landmark 81",10.795,106.721944444,"",Ho Chi Minh City,Vietnam,landmark,"",,
"Ste. Marie-Cappel Churchyard",50.78398,2.508527,"",Sainte-Marie-Cappel,France,cemetery,"",,
"Élysée Palace",48.870277777,2.316388888,"",Paris,France,castle,"",,
"Östra kyrkogården",57.715277777,12.013888888,"",Gothenburg Municipality,Sweden,cemetery,"",,
"Royal Burial Ground",51.474,-0.598583333,"",Berkshire,United Kingdom,cemetery,"",,
"Urduliz",43.378889,-2.958333,"",Urduliz,Spain,landmark,"",,
"Jewish cemetery in Mszczonów",51.9811,20.5111,"",Mszczonów,Poland,cemetery,"",,
"St. Olav's Cathedral",59.918156,10.744135,"",Oslo Municipality,Norway,church,"",,
"City hall of Texel",53.050689,4.802185,"",Texel,Netherlands,landmark,"",,
"San Maurizio al Monastero Maggiore",45.46566,9.17892,"",Milan,Italy,landmark,"",,
"De Ferrari",44.407639,8.934444,"",Genoa,Italy,landmark,"",,
"Von-Alten-Garten",52.3644,9.71167,"",Linden-Limmer,Germany,cemetery,"",,
"UCLA Broad Art Center",34.07588522,-118.44118633,"",Westside,United States,landmark,"",,
"The Boardman",42.692222,-73.105556,"",Massachusetts,United States,landmark,"",,
"United States Post Office–Lexington Main",42.446944,-71.225556,"",Lexington,United States,landmark,"",,
"Brussels Airport",50.901388888,4.484444444,"",,,landmark,"",,
"Schoorl General Cemetery",52.705986111,4.697805555,"",Bergen,Netherlands,cemetery,"",,
"10 Lafayette Square",42.89,-78.87,"",Buffalo,United States,landmark,"",,
"Hotel Pez Espada",36.605870748,-4.507261584,"",Torremolinos,Spain,hotel,"",,
"Ostfilder cemetery",48.741111111,9.222222222,"",Stuttgart,Germany,cemetery,"",,
"Mansion House",51.51325,-0.089361111,"",London,United Kingdom,landmark,"",,
"Tokyo Metropolitan Teien Art Museum",35.636862,139.719269,"",Tokyo,Japan,museum,"",,
"Serbisch-orthodoxe Kirche St. Sava, Landstraße",48.1986,16.3797,"",Landstraße,Austria,church,"",,
"Sleep Train Pavilion",37.9597,-121.946,"",Concord,United States,landmark,"",,
"Tsaritsyno Park + palace",55.6168339,37.682817,"",Orekhovo-Borisovo Severnoye District,Russia,castle,"",,
"Colégio Cataguases",-21.38329167,-42.70125556,"",Cataguases,Brazil,landmark,"",,
"Santa Maria presso San Satiro",45.462608,9.188035,"",Milan,Italy,landmark,"",,
"World War I Cemetery nr 95 in Stróżówka",49.681388888,21.136944444,"",Stróżówka,Poland,cemetery,"",,
"Bank of America Tower",40.755278,-73.984167,"",New York City,United States,landmark,"",,
"San Giovanni Battista, Highway A11",43.83166944,11.15694444,"",Campi Bisenzio,Italy,landmark,"",,
"Terrein waarin een galgenberg (zeer waarschijnlijk oorspronkelijk grafheuvel)",52.1419,5.3706,"",Amersfoort,Netherlands,cemetery,"",,
"World War I Cemetery nr 10 in Wola Cieklińska",49.626944444,21.389444444,"",Wola Cieklińska,Poland,cemetery,"",,
"Niagara Cemetery",50.218755,3.333194,"",Iwuy,France,cemetery,"",,
"Lensic Theater",35.6879,-105.941,"",Santa Fe,United States,theater,"",,
"Dickson County War Memorial Building",36.07416667,-87.39055556,"",Dickson,United States,landmark,"",,
"Casa Rosada",-34.608055555,-58.370277777,"",Buenos Aires,Argentina,landmark,"",,
"Feltrinelli Porta Volta",45.481417,9.184359,"",Milan,Italy,landmark,"",,
"Édifice Marie-Guyart",46.808056,-71.217222,"",Quebec City,Canada,landmark,"",,
"Kozel Castle",49.67055,13.52982,"",Šťáhlavy,Czech Republic,castle,"",,
"Windsor Castle",51.4838,-0.60483,"",Windsor and Maidenhead,United Kingdom,castle,"",,
"La Creche Communal Cemetery",50.7209,2.783603,"",Bailleul,France,cemetery,"",,
"Pagoda Forest at Shaolin Temple",34.505277777,112.938611111,"",Dengfeng,People's Republic of China,cemetery,"",,
"Royal Swedish Academy of Sciences",59.366388888,18.051666666,"",,,university,"",,
"Century Center",51.217093819,4.419249332,"",Antwerp,Belgium,landmark,"",,
"Villa Mairea",61.5974518,21.8745078,"",Pori,Finland,landmark,"",,
"monumental cemetery of Legnano",45.585843,8.91757,"",Legnano,Italy,cemetery,"",,
"Dorfkirche Karow",52.611944444,13.483888888,"",Pankow,Germany,cemetery,"",,
"Thaba Bosiu",-29.353611111,27.670833333,"",Lesotho,Lesotho,cemetery,"",,
"Ward County Courthouse",48.233056,-101.2875,"",North Dakota,United States,landmark,"",,
"Brookwood Cemetery",51.296666666,-0.633333333,"",Woking,United Kingdom,cemetery,"",,
"Hauptfriedhof Koblenz",50.351444444,7.575697222,"",Koblenz,Germany,cemetery,"",,
"Friedhof Mauer",48.153611111,16.273611111,"",Mauer,Austria,cemetery,"",,
"Rathaus Bensberg",50.965016202,7.163398634,"",Bergisch Gladbach,Germany,landmark,"",,
"Cave Hill Cemetery",38.245556,-85.715833,"",Louisville,United States,cemetery,"",,
"1 Police Plaza",40.712202777,-74.001677777,"",New York,United States,landmark,"",,
"Forest-l'Abbaye Churchyard",50.207343,1.82376,"",Forest-l'Abbaye,France,cemetery,"",,
"Erandio",43.303889,-2.974444,"",Erandio,Spain,landmark,"",,
"Crouse House",25.9092,-80.2489,"",Opa-locka,United States,landmark,"",,
"Cebu Provincial Capitol",10.31669722,123.89076111,"",Cebu City,Philippines,landmark,"",,
"Frösö 58:4",63.17697,14.519648,"",Östersund Municipality,Sweden,cemetery,"",,
"Säynätsalo Town Hall",62.14025,25.769166666,"",Jyväskylä,Finland,landmark,"",,
"Delsaux Farm Cemetery",50.108888888,2.934166666,"",Beugny,France,cemetery,"",,
"Parish Church of Our Lady of Pilar and Saint Lucy",-12.966011,-38.506717,"",Salvador,Brazil,church,"",,
"Josey Boy Scout Lodge and Keeper's Cabin",30.709198888,-95.551796944,"",Huntsville,United States,landmark,"",,
"Allerheiligenkirche, Graz",47.0658,15.385,"",Graz,Austria,cemetery,"",,
"Edifício Itália",-23.545417,-46.643611,"",Central Zone of São Paulo,Brazil,landmark,"",,
"Mikimoto Ginza 2",35.6737,139.7659,"",Tokyo,Japan,landmark,"",,
"Helsinki Cathedral",60.17038775,24.95212383,"",Helsinki,Finland,church,"",,
"Bercy 2",48.826334,2.393153,"",Charenton-le-Pont,France,landmark,"",,
"St. Gertrud",50.9519,6.95181,"",Neustadt-Nord,Germany,landmark,"",,
"Rosenbad",59.328472222,18.065833333,"",Stockholm,Sweden,landmark,"",,
"Khersonskiy proezd 2, Saint Petersburg",59.928262,30.383512,"",Saint Petersburg,Russia,landmark,"",,
"Madonna delle Lacrime Sanctuary",37.07472222,15.28527778,"",Syracuse,Italy,landmark,"",,
"Garfield School",46.415277777,-116.989722222,"",Lewiston,United States,university,"",,
"United Lutheran Church",47.91861111,-97.03027778,"",Grand Forks,United States,church,"",,
"Hollywood & Western Building",34.1012,-118.31,"",Los Angeles,United States,landmark,"",,
"Plummer-Motz School",43.72388889,-70.245,"",Falmouth,United States,university,"",,
"Mount Auburn Cemetery",39.259388888,-76.639694444,"",Baltimore,United States,cemetery,"",,
"Escola la Salle",41.4882,2.35018,"",Premià de Mar,Spain,landmark,"",,
"St. Anna",50.9548653,6.9259833,"",Neuehrenfeld,Germany,landmark,"",,
"Ford Foundation Building",40.749722222,-73.971111111,"",New York,United States,landmark,"",,
"Haarlem railway station",52.387778,4.638889,"",Haarlem,Netherlands,landmark,"",,
"Socx Churchyard",50.936204,2.422682,"",Socx,France,cemetery,"",,
"Brooklyn Tower",40.690555555,-73.982222222,"",New York,United States,landmark,"",,
"Theater Itzehoe",53.922304,9.515785,"",Itzehoe,Germany,theater,"",,
"Old Niendorf Cemetery",53.61611111,9.94972222,"",Eimsbüttel,Germany,cemetery,"",,
"Hotel Saljut",50.44125,30.55,"",Kyiv,Ukraine,hotel,"",,
"Calvary Cemetery",-9.8006,-139.0382,"",Hiva-Oa,France,cemetery,"",,
"Odd Fellows Mansion",55.6828,12.59,"",Copenhagen Municipality,Denmark,landmark,"",,
"Louvre Palace",48.861028,2.335886,"",Paris,France,castle,"",,
"Orpheum Theatre",43.075,-89.388611,"",Madison,United States,theater,"",,
"Continental Bank Building",40.70627,-74.01165,"",New York,United States,landmark,"",,
"Soccer City Stadium",-26.234806,27.982378,"",,,stadium,"",,
"Huize Lydia",52.353019,4.881119,"",Amsterdam,Netherlands,landmark,"",,
"Cross Bones",51.5042,-0.093,"",London Borough of Southwark,United Kingdom,cemetery,"",,
"Ås 14:1",63.235179,14.538876,"",Krokom Municipality,Sweden,cemetery,"",,
"Hôtel Loews Le Concorde",46.805107,-71.21711,"",Quebec City,Canada,hotel,"",,
"Experimental Theater",18.9252,72.8199,"",Mumbai,India,theater,"",,
"Charlottenhof Palace",52.3955,13.0259,"",Potsdam,Germany,castle,"",,
"Rijksmuseum",52.36,4.885277777,"",,,landmark,"",,
"Okopowa Street Jewish Cemetery",52.2475,20.974722222,"",Warsaw,Poland,cemetery,"",,
"Altstadt",47.2711,11.39535,"",Innsbruck,Austria,landmark,"",,
"Rockcliffe Mansion",39.707939,-91.365736,"",Missouri,United States,landmark,"",,
"Jacobshof",51.45861,5.77917,"",Deurne,Netherlands,cemetery,"",,
"One Liberty Plaza",40.709722222,-74.010833333,"",New York,United States,landmark,"",,
"Arleux-du-Nord Communal Cemetery",50.282061,3.111524,"",Arleux,France,cemetery,"",,
"Tumulus of Yernawe",50.59442,5.34083,"",Saint-Georges-sur-Meuse,Belgium,cemetery,"",,
"Joel W. Solomon Federal Building and United States Courthouse",35.045,-85.308333,"",Tennessee,United States,landmark,"",,
"Dearborn City Hall Complex",42.32138889,-83.17666667,"",Michigan,United States,landmark,"",,
"Casa de Serralves",41.1585,-8.6577,"",Lordelo do Ouro e Massarelos,Portugal,landmark,"",,
"St. Colman's Roman Catholic Church and Cemetery",37.7658,-80.9211,"",Raleigh County,United States,cemetery,"",,
"Estádio Serra Dourada",-16.698889,-49.233889,"",Goiânia,Brazil,landmark,"",,
"No 1 Poultry",51.513333333,-0.090833333,"",London,United Kingdom,landmark,"",,
"Cappella Colleoni",45.70344,9.66211,"",Bergamo,Italy,landmark,"",,
"United States Post Office",40.650556,-73.956667,"",New York,United States,landmark,"",,
"Knights of Columbus Building",41.3026,-72.9274,"",New Haven,United States,landmark,"",,
"tumulus de la Halliade",43.1479,-0.0617,"",Bartrès,France,cemetery,"",,
"Samara Choral Synagogue",53.183977,50.102489,"",Samara,Russia,temple,"",,
"Terrein waarin 6 grafheuvels",52.18248,5.22892,"",Baarn,Netherlands,cemetery,"",,
"Pfarrkirche Ötting",46.74384722,12.95683056,"",Oberdrauburg,Austria,cemetery,"",,
"Olšany Cemetery",50.080555555,14.470555555,"",Prague 3,Czech Republic,cemetery,"",,
"Castello Estense",44.837628,11.619426,"",Ferrara,Italy,landmark,"",,
"53W53",40.761666666,-73.978333333,"",New York,United States,landmark,"",,
"Ehrenfriedhof Kastel",49.5674,6.57101,"",Kastel-Staadt,Germany,cemetery,"",,
"J. Paul Getty Museum",34.0775,-118.475,"",Los Angeles,United States,museum,"",,
"Wrocław water tower",51.08523056,17.01756389,"",Wrocław,Poland,landmark,"",,
"Salman ITB Mosque",-6.893713,107.611195,"",Bandung,Indonesia,temple,"",,
"Topkapı Palace",41.013,28.984,"",,,castle,"",,
"Catetinho",-15.9475,-47.988333333,"",Park Way,Brazil,landmark,"",,
"National Centre for the Performing Arts",18.9251,72.8206,"",Mumbai City district,India,landmark,"",,
"Deutscher Friedhof",50.1359,8.91117,"",Hanau,Germany,cemetery,"",,
"Eastern Suburbs Memorial Park",-33.974528,151.227399,"",City of Randwick,Australia,cemetery,"",,
"Arthur Street Cemetery",-45.8733,170.494,"",Dunedin City,New Zealand,cemetery,"",,
"333 South Wabash",41.877416666,-87.625638888,"",Chicago,United States,landmark,"",,
"Old Scarborough High School",43.58861111,-70.34111111,"",Scarborough,United States,university,"",,
"Royal Palace of Milan",45.463054,9.191153,"",Milan,Italy,castle,"",,
"Sant Marçal del Colomer d'Amer",42.02547,2.57921,"",Amer,Spain,landmark,"",,
"Karaite Kenesa",50.45,30.511111111,"",Yaroslaviv Val Street,Ukraine,landmark,"",,
"Begraafplaats Buitenveldert",52.34027778,4.86138889,"",Amsterdam,Netherlands,cemetery,"",,
"Minerva Pavilion",52.350833333,4.869722222,"",Amsterdam,Netherlands,landmark,"",,
"Ehrenfriedhof Cap Arcona",54.0889,10.8275,"",Neustadt in Holstein,Germany,cemetery,"",,
"pierresvives",43.624155555,3.823069444,"",Montpellier,France,landmark,"",,
"Metropolitan Museum of Art",40.779444444,-73.963333333,"",,,museum,"",,
"Ilmenau Cemetery",50.6892,10.9114,"",Ilmenau,Germany,cemetery,"",,
"National Cemetery in Martin",49.06068,18.92527,"",Martin,Slovakia,cemetery,"",,
"Malmö Synagogue",55.599444444,13.010833333,"",Malmö Municipality,Sweden,temple,"",,
"Lapido Building",-34.90638889,-56.19611111,"",Montevideo,Uruguay,landmark,"",,
"Aqua",41.886497,-87.619711,"",Cook County,United States,landmark,"",,
"Forest Lawn Cemetery",37.5945,-77.4354,"",Richmond,United States,cemetery,"",,
"TIME'S I + II",35.0087,135.7703,"",Kyoto,Japan,landmark,"",,
"Casa Antoni Pous",41.5654,2.01386,"",Terrassa,Spain,landmark,"",,
"Presidential Palace, Damascus",33.5175,36.25166667,"",Damascus,Syria,castle,"",,
"Forest Cemetery",56.987222222,24.149444444,"",Riga,Latvia,cemetery,"",,
"Dryburgh Abbey",55.575545352,-2.64908237,"",Scottish Borders,United Kingdom,cemetery,"",,
"Azadi Tower",35.699722222,51.338055555,"",,,landmark,"",,
"Cimetière de Balham",49.4913,4.16151,"",Balham,France,cemetery,"",,
"Hohenstein power station",51.425116666,7.349427777,"",Witten,Germany,landmark,"",,
"Victor Cullen Center, Old Administration Building",39.7111,-77.4572,"",Maryland,United States,landmark,"",,
"Edificio Urumea",43.322777222,-1.978486111,"",San Sebastián,,architecture,"",,
"Castellum of Weltenburg-Frauenberg",48.8957,11.8229,"",凯尔海姆,Germany,cemetery,"",,
"Kuratienkirche Innerberg",47.0999,9.94395,"",Bartholomäberg,Austria,cemetery,"",,
"Yellow Palace",55.68301,12.59272,"",Copenhagen Municipality,Denmark,castle,"",,
"Pearl River Tower",23.12666667,113.3175,"",Guangzhou,People's Republic of China,landmark,"",,
"Fairfield Street School",44.808611111,-73.079166666,"",St. Albans,United States,university,"",,
"Church of the Transfiguration in Tarnogród",50.363056,22.743944,"",Tarnogród,Poland,church,"",,
"Terrein waarin resten van een grafheuvel",52.1148,6.64599,"",Berkelland,Netherlands,cemetery,"",,
"Terre Haute Post Office and Federal Building",39.467222,-87.4075,"",Indiana,United States,landmark,"",,
"Mrs. Isaac D. Adler House",42.3008,-87.9553,"",Libertyville,United States,landmark,"",,
"Bank of America Plaza",34.0536,-118.253,"",California,United States,landmark,"",,
"Novodevichy Cemetery",59.897777777,30.325,"",Moskovsky District, Saint Petersburg,Russia,cemetery,"",,
"550 Madison Avenue",40.761388888,-73.973333333,"",New York,United States,landmark,"",,
"Ströbo hög",59.522501,15.964886,"",Köping Municipality,Sweden,cemetery,"",,
"World War I Cemetery nr 1 in Ożenna",49.418888888,21.4575,"",Ożenna,Poland,cemetery,"",,
"Kirche Sankt Jakob bei Straßburg",46.9032,14.2618,"",Strassburg,Austria,cemetery,"",,
"Kasteel De Maurissens",50.862897222,4.797686111,"",Lubbeek,Belgium,landmark,"",,
"Dunedin Northern Cemetery",-45.861189,170.52531,"",Dunedin City,New Zealand,cemetery,"",,
"Cohen House",51.4876,-0.17401,"",Royal Borough of Kensington and Chelsea,United Kingdom,landmark,"",,
"Eliot Burying Ground",42.331944,-71.081944,"",Boston,United States,cemetery,"",,
"Art Institute of Chicago building",41.8796,-87.6237,"",Chicago,United States,university,"",,
"Torres Blancas",40.4397,-3.67201,"",Madrid,Spain,landmark,"",,
"Kingdom Centre",24.711389,46.674444,"",Riyadh,Saudi Arabia,landmark,"",,
"Chmielna 25",52.232042,21.013873,"",Warsaw,Poland,landmark,"",,
"Haus Armanda Passos",41.1577,-8.667,"",Porto,Portugal,landmark,"",,
"1101 New York Avenue",38.9003,-77.0275,"",Washington, D.C.,United States,landmark,"",,
"Sistine Chapel",41.902956,12.454433,"",Vatican City,Vatican City,church,"",,
"Prédio na Avenida António Augusto de Aguiar, 100",38.73209,-9.15174,"",Avenidas Novas,Portugal,landmark,"",,
"Saint Germain-en-Laye Old Communal Cemetery",48.9003,2.08222,"",Saint-Germain-en-Laye,France,cemetery,"",,
"Procuradoria Geral da República",-15.807725,-47.85955278,"",Federal District,Brazil,landmark,"",,
"First Presbyterian Church Cemetery",35.9643,-83.9161,"",Knoxville,United States,cemetery,"",,
"Superintendent's Residence, Great Sand Dunes National Monument",37.724985,-105.518936,"",Alamosa County,United States,landmark,"",,
"Monumental Cemetery of Messina",38.1751401,15.5426314,"",Messina,Italy,cemetery,"",,
"Leubingen tumulus",51.1903,11.1697,"",Sömmerda,Germany,cemetery,"",,
"Friedhof Solln",48.0787,11.5178,"",Munich,Germany,cemetery,"",,
"Everton Cemetery",53.457,-2.942,"",Liverpool,United Kingdom,cemetery,"",,
"Pfarrkirche Stiwoll",47.1027,15.2191,"",Stiwoll,Austria,cemetery,"",,
"Hara Museum ARC",36.50277,138.94528,"",Shibukawa,Japan,museum,"",,
"Engine Company 12",38.91199683,-77.009455,"",Washington, D.C.,United States,landmark,"",,
"Pfarrkirche Treffen",46.6688,13.8562,"",Treffen,Austria,cemetery,"",,
"Zandkasteel",52.313611111,4.952222222,"",Amsterdam,Netherlands,landmark,"",,
"Sieveringer Friedhof",48.248611111,16.320555555,"",Döbling,Austria,cemetery,"",,
"Plentzia",43.401729,-2.946393,"",Plentzia,Spain,landmark,"",,
"Novozapadnoe Cemetery, Penza",53.19859,44.95132,"",Penza,Russia,cemetery,"",,
"Saint Petersburg Mosque",59.955166666,30.323888888,"",Petrogradsky District,Russia,temple,"",,
"Stolzenfels Castle",50.3032,7.59242,"",Koblenz,Germany,castle,"",,
"Cubo Negro",10.484333333,-66.853333333,"",Caracas,Venezuela,landmark,"",,
"Congregation Ohab Zedek",40.7924,-73.969,"",New York,United States,landmark,"",,
"Cimitero Nuovo",43.371208,10.597431,"",Riparbella,Italy,cemetery,"",,
"Halvdanshaugen",60.10469766,10.29476099,"",Hole,Norway,cemetery,"",,
"Bath Abbey Cemetery",51.3701,-2.3481,"",Bath and North East Somerset,United Kingdom,cemetery,"",,
"Academie Brochu",42.079444,-72.038056,"",Southbridge,United States,landmark,"",,
"William R. Snodgrass Tennessee Tower",36.1639,-86.7849,"",Tennessee,United States,landmark,"",,
"St. Vaast Communal Cemetery Extension",50.192555,3.414856,"",Saint-Vaast-en-Cambrésis,France,cemetery,"",,
"Cmentarz Żołnierzy Radzieckich w Piotrkowie Trybunalskim",51.423888888,19.715833333,"",Piotrków Trybunalski,Poland,cemetery,"",,
"Stockton-Montmorency",39.7922,-75.6278,"",New Castle County,United States,landmark,"",,
"Information, Communications and Media Centre Cottbus",51.7672,14.3294,"",Cottbus,Germany,landmark,"",,
"Heaven's Peak Fire Lookout",48.748747,-113.876914,"",Flathead County,United States,landmark,"",,
"Asheville City Hall",35.595556,-82.548611,"",Asheville,United States,landmark,"",,
"Porokhovskoye Cemetery",59.9725,30.501111111,"",Saint Petersburg,Russia,cemetery,"",,
"St. Rochus Cemetery",49.4475,11.060277777,"",Nuremberg,Germany,cemetery,"",,
"University of Tartu Old Observatory",58.3788,26.720111111,"",Tartu City,Estonia,university,"",,
"Østerport Station",55.692222,12.5875,"",Copenhagen Municipality,Denmark,landmark,"",,
"Cape Town Stadium",-33.903461111,18.411152777,"",,,stadium,"",,
"Kulturpalast Dresden",51.051,13.7385,"",Dresden,Germany,landmark,"",,
"Kaplaneikirche Boden",47.283638,10.605637,"",Pfafflar,Austria,cemetery,"",,
"H. C. Burnett House",43.597777777,-116.163888888,"",Boise,United States,landmark,"",,
"Drottningholm Palace",59.321694,17.886383,"",,,castle,"",,
"Southern Han Mausoleums Museum",23.05073,113.37789,"",Xiaoguwei Subdistrict,People's Republic of China,cemetery,"",,
"Grafheuvel van de familie Van Sminia",53.26463,5.88888,"",Tytsjerksteradiel,Netherlands,cemetery,"",,
"St. Vaast Communal Cemetery",50.1923,3.4143,"",Saint-Vaast-en-Cambrésis,France,cemetery,"",,
"Villa Dall'Ava",48.85586667,2.21823333,"",Saint-Cloud,France,landmark,"",,
"Rogers Centre",43.641388888,-79.389166666,"",Toronto,Canada,landmark,"",,
"Cambridge American Cemetery and Memorial",52.2161,0.05381,"",Cambridge,United Kingdom,cemetery,"",,
"The Evergreens Cemetery",40.683889,-73.901194,"",New York,United States,cemetery,"",,
"Navenne military cemetery",47.61027,6.16535,"",Vesoul,France,cemetery,"",,
"Bootham Cemetery",50.238157,2.882102,"",Héninel,France,cemetery,"",,
"Presbítero Matias Maestro",-12.041,-77.008,"",Lima,Peru,cemetery,"",,
"Vendegies-au-Bois Churchyard",50.17973,3.57694,"",Vendegies-au-Bois,France,cemetery,"",,
"J. Marvin Jones Federal Building and United States Courthouse",35.208611,-101.834167,"",Amarillo,United States,landmark,"",,
"Osterholzer Friedhof",53.0639,8.92111,"",Osterholz,Germany,cemetery,"",,
"Skogskyrkogården",59.275555555,18.099444444,"",Stockholm,Sweden,cemetery,"",,
"Hedemora 67:2",60.321424,15.900423,"",Hedemora Municipality,Sweden,cemetery,"",,
"Ivan Skvartsov family vault",52.242,20.9724,"",Warsaw,Poland,cemetery,"",,
"Bielsko Synagogue",49.82472222,19.04444444,"",Bielsko-Biała,Poland,temple,"",,
"Bohemian National Cemetery",39.3078,-76.5536,"",Baltimore,United States,cemetery,"",,
"Casa Boleda",41.3688,2.12686,"",L'Hospitalet de Llobregat,Spain,landmark,"",,
"Hotel National",55.756666666,37.613888888,"",Tverskoy District,Russia,hotel,"",,
"Mazingarbe Communal Cemetery",50.4692,2.7123,"",Mazingarbe,France,cemetery,"",,
"Central Cemetery of Montevideo",-34.9125,-56.187222222,"",Montevideo,Uruguay,cemetery,"",,
"1717 East Ninth Building",41.5021394,-81.6879576,"",Cleveland,United States,landmark,"",,
"Q1 Tower",-28.006111111,153.429444444,"",,,landmark,"",,
"Subotica Synagogue",46.101666666,19.661388888,"",Subotica,Serbia,temple,"",,
"Ulm Minster",48.398611111,9.9925,"",Ulm,Germany,church,"",,
"Boone County Courthouse",36.230278,-93.108056,"",Arkansas,United States,landmark,"",,
"Schubertpark (Währing)",48.226388888,16.339444444,"",Währing,Austria,cemetery,"",,
"Strong's Block",42.326389,-71.231389,"",Newton,United States,landmark,"",,
"Stephen Hansen Mansion",56.03506,12.61562,"",Helsingør Municipality,Denmark,landmark,"",,
"Assistens Cemetery",55.691111111,12.548888888,"",Copenhagen Municipality,Denmark,cemetery,"",,
"Toledo railway station",39.8624,-4.01125,"",Toledo,Spain,landmark,"",,
"Amisos Hill",41.31888889,36.32305556,"",Atakum district,Turkey,cemetery,"",,
"Hook and Ladder No. 4",42.641667,-73.780278,"",New York,United States,landmark,"",,
"Villanueva del Arzobispo's bullring",38.162536111,-3.0075,"",Villanueva del Arzobispo,Spain,landmark,"",,
"Camp Hill Cemetery",44.6427,-63.5862,"",Nova Scotia,Canada,cemetery,"",,
"Sava Centar",44.8085,20.4303,"",New Belgrade,Serbia,landmark,"",,
"Varnum School",42.651111,-71.299444,"",Massachusetts,United States,university,"",,
"Casino Palm Beach",43.53612,7.03719,"",Cannes,France,landmark,"",,
"Leers Communal Cemetery",50.6812,3.2494,"",Leers,France,cemetery,"",,
"Rimsko gomilno grobišče v Brengovi",46.573780145,15.934912909,"",Municipality of Cerkvenjak,Slovenia,cemetery,"",,
"Central Sofia Cemetery",42.716375,23.333008333,"",Sofia,Bulgaria,cemetery,"",,
"Arsenal Stadium",51.557696,-0.102966,"",,,stadium,"",,
"Jonathan Bourne Public Library",41.7422,-70.5981,"",Bourne,United States,library,"",,
"Bachelor's Grove Cemetery",41.6308,-87.7708,"",Bremen Township,United States,cemetery,"",,
"Bayview – New York Bay Cemetery",40.6954,-74.0874,"",Jersey City,United States,cemetery,"",,
"Hervormde begraafplaats (Hoogezand)",53.165731,6.753081,"",Hoogezand-Sappemeer,Netherlands,cemetery,"",,
"Church of Virgen de la Paloma and San Pedro el Real",40.408365,-3.711824,"",Palacio,Spain,church,"",,
"Apartment house of Chirikov (Rostov-on-Don)",47.223981,39.706362,"",Budenovsky avenue in Rostov-on-Don,Russia,landmark,"",,
"Christ Church Tashua",41.286667,-73.260556,"",Connecticut,United States,cemetery,"",,
"Casa de España",18.466432,-66.108019,"",San Juan,United States,landmark,"",,
"Igreja do Carmo",41.147486,-8.616266,"",Cedofeita, Santo Ildefonso, Sé, Miragaia, São Nicolau e Vitória,Portugal,landmark,"",,
"La Pyramide Inversée",48.861416666,2.334111111,"",Paris,France,landmark,"",,
"Cathedral of Santa Maria d'Urgell",42.357851,1.461917,"",La Seu d'Urgell,Spain,church,"",,
"Kremlin",55.751666666,37.617777777,"",,,landmark,"",,
"Kiryat Shaul Cemetery",32.1292,34.8236,"",Tel Aviv,Israel,cemetery,"",,
"U.S. Bank Tower",34.050961,-118.254353,"",Los Angeles,United States,landmark,"",,
"church of Santa Cristina",40.41396667,-3.72816389,"",Madrid,Spain,church,"",,
"Palace of Justice",-15.79722222,-47.86583333,"",Brasília,Brazil,castle,"",,
"Дом сувязі",52.424215,31.012664,"",Gomel,Belarus,landmark,"",,
"Parthenon",36.1496,-86.8135,"",Nashville,United States,landmark,"",,
"Château de Chambord",47.616111111,1.517222222,"",Tour-en-Sologne,France,castle,"",,
"Taichung Condominium Tower",24.155,120.645555555,"",Taichung,Taiwan,landmark,"",,
"Old Synagogue, Aachen",50.776666,6.092965,"",Aachen-Mitte,Germany,temple,"",,
"Vitra Design Museum",47.602777777,7.618055555,"",Weil am Rhein,Germany,museum,"",,
"Superjednostka",50.26351389,19.02052778,"",Katowice,Poland,landmark,"",,
"Gesù Nuovo",40.84762222,14.25180278,"",Naples,Italy,landmark,"",,
"Frank C. Barnes House",45.547064,-122.627548,"",Portland,United States,landmark,"",,
"Carleton Crematorium and Cemetery",53.8462,-3.0211,"",England,United Kingdom,cemetery,"",,
"East London Cemetery",51.527,0.015,"",London Borough of Newham,United Kingdom,cemetery,"",,
"Esplanada dos Ministérios, Bloco O",-15.7957,-47.8705,"",Brasília,Brazil,landmark,"",,
"Former Mitsui & Co. Moji branch",33.945167,130.962194,"",Kitakyushu,Japan,landmark,"",,
"UniCredit Tower",45.483844444,9.189877777,"",Milan,Italy,landmark,"",,
"Church Street Graveyard",30.685833333,-88.050833333,"",Mobile,United States,cemetery,"",,
"Oradour-sur-Glane cemetery",45.93180556,1.04027778,"",Oradour-sur-Glane,France,cemetery,"",,
"DN Tower 21",35.675833333,139.760833333,"",Tokyo,Japan,landmark,"",,
"Elkhorn Municipal Building",42.67157,-88.54451,"",Elkhorn,United States,landmark,"",,
"Pfarrkirche Zeltschach",46.9708,14.4428,"",Friesach,Austria,cemetery,"",,
"Mestalla Stadium",39.474722,-0.358333,"",,,stadium,"",,
"Erie Cemetery",42.111388888,-80.084722222,"",Erie,United States,cemetery,"",,
"Monumental Cemetery of Bonaria",39.210833,9.124722,"",Cagliari,Italy,cemetery,"",,
"Verdala Palace",35.861531,14.400614,"",Siġġiewi,Malta,castle,"",,
"Hotel InterContinental Prague",50.091375,14.41838056,"",Prague 1,Czech Republic,hotel,"",,
"Inzersdorfer Friedhof",48.145833333,16.349444444,"",Vienna,Austria,cemetery,"",,
"Ernst & Young Building",51.91425,4.486444444,"",Rotterdam,Netherlands,landmark,"",,
"Villa Schreiner",59.964932459,10.744984621,"",Oslo Municipality,Norway,landmark,"",,
"Máj Národní",50.0822,14.4197,"",Prague 1,Czech Republic,landmark,"",,
"Grafheuvel #47060",51.96637,5.69749,"",Wageningen,Netherlands,cemetery,"",,
"Kaufhaus Tyrol",47.265515,11.395032,"",Innsbruck,Austria,landmark,"",,
"Gare Saint-Lazare",48.876944444,2.324444444,"",,,landmark,"",,
"Tumulus of Hochtumsknopf",50.23163,6.05816,"",Burg-Reuland,Belgium,cemetery,"",,
"Marles-sur-Canche Churchyard",50.457642,1.8268,"",Marles-sur-Canche,France,cemetery,"",,
"Burlington Arcade",51.50913908,-0.140305635,"",City of Westminster,United Kingdom,landmark,"",,
"Royal Cemetery at Ur",30.962,46.1047,"",Dhi Qar Governorate,Iraq,cemetery,"",,
"Glenville School",41.036667,-73.664444,"",Connecticut,United States,university,"",,
"Terrain with tumulus #45952",51.98641,5.73581,"",Renkum,Netherlands,cemetery,"",,
"Building of TVP Warsaw",52.188186763,21.008947587,"",Mokotów,Poland,landmark,"",,
"Chilehaus",53.5482,10.0016,"",Hamburg-Mitte,Germany,landmark,"",,
"Französischer Friedhof",52.5283,13.385,"",Bezirk Mitte,Germany,cemetery,"",,
"Headquarters Administration Building",37.172372,-122.221778,"",Santa Cruz County,United States,landmark,"",,
"Pfarrkirche hl. Martin, Ebene Reichenau",46.8539,13.8937,"",Reichenau,Austria,cemetery,"",,
"Highgate Cemetery",51.567,-0.147,"",London Borough of Camden,United Kingdom,cemetery,"",,
"Shuljavskiy Cemetery",50.444444444,30.434722222,"",Solomianka Raion,Ukraine,cemetery,"",,
"Schaerbeek Cemetery",50.869117227,4.425471971,"",Evere,Belgium,cemetery,"",,
"Eremo dei Santi",42.919181933,11.319305456,"",Cinigiano,Italy,landmark,"",,
"Kommunarka shooting ground",55.57874,37.45595,"",Novomoskovsky Administrative Okrug,Russia,cemetery,"",,
"Archcathedral Basilica of St. Stanislaus Kostka, Łódź",51.748819444,19.459608333,"",Katedralna,Poland,church,"",,
"Cappelle-en-Pévèle cemetery",50.512874,3.165898,"",Cappelle-en-Pévèle,France,cemetery,"",,
"Afrikahuis, Amsterdam",52.352889,4.897762,"",Amsterdam,Netherlands,landmark,"",,
"Hillside Memorial Park",33.9806,-118.39,"",Los Angeles County,United States,cemetery,"",,
"Fabric Synagogue",45.756308,21.245506,"",Timiș County,Romania,temple,"",,
"Cimetière du Sud",50.605841,3.052382,"",Lille,France,cemetery,"",,
"Coddington Cemetery",41.4925,-71.31444444,"",Newport,United States,cemetery,"",,
"Milmoral",40.0839,-75.1464,"",Pennsylvania,United States,landmark,"",,
"Ceramics Park Mino",35.33086111,137.15488889,"",Nagoya,Japan,park,"",,
"Chiesa di San Vitale Martire",44.816777777,9.9775,"",Salsomaggiore Terme,Italy,church,"",,
"Sint-Rochuskerk (Saint-Roch)",50.731233333,4.243911111,"",Halle,Belgium,landmark,"",,
"Sapieha Palace, Warsaw",52.254354,21.006766,"",Śródmieście,Poland,castle,"",,
"Le Peuplier Military Cemetery",50.752503,2.577944,"",Caëstre,France,cemetery,"",,
"Heating plant and main controls cabin, Florence",43.78165,11.24496,"",Florence,Italy,landmark,"",,
"Fragrant Hill Hotel",39.988308,116.188461,"",Xiangshan Subdistrict,People's Republic of China,hotel,"",,
"Tumulus d'Etal-Berder",47.582595,-2.891731,"",Larmor-Baden,France,cemetery,"",,
"Nordfriedhof",48.175200935,11.602942471,"",Munich,Germany,cemetery,"",,
"Casa de las Bolas",40.424641666,-3.676483333,"",Madrid,Spain,landmark,"",,
"DeLuca Biochemistry Building",43.0739,-89.4106,"",Madison,United States,landmark,"",,
"Grafheuvel, alsmede een zone",51.99595,5.73537,"",Renkum,Netherlands,cemetery,"",,
"Schirdingovský palác",50.0819,14.4181,"",New Town,Czech Republic,landmark,"",,
"Dunfermline Abbey",56.0697028,-3.463541394,"",Fife,United Kingdom,church,"",,
"Geisel Library",32.88116,-117.237651,"",San Diego,United States,library,"",,
"main building of the University of Tartu",58.381111111,26.72,"",Tartu City,Estonia,university,"",,
"Thurston Hall (Cornell University)",42.443985352,-76.4836634,"",Ithaca,United States,university,"",,
"William A. Nelden House",40.766944,-111.856389,"",Salt Lake City,United States,landmark,"",,
"Évêques-de-Trois-Rivières Mausoleum",46.3525,-72.575,"",Trois-Rivières,Canada,landmark,"",,
"Appomattox Court House National Historical Park cemeteries",37.3786,-78.7964,"",Virginia,United States,cemetery,"",,
"Trinity Cathedral",59.9165,30.306,"",Saint Petersburg,Russia,church,"",,
"Fundación Instituto San José",40.362866666,-3.772869444,"",Cuatro Vientos,Spain,landmark,"",,
"Soviet military cemetery in Suwałki",54.1391,22.9325,"",Suwałki,Poland,cemetery,"",,
"Cemetery of the Victims of January 9",59.851203,30.447753,"",Saint Petersburg,Russia,cemetery,"",,
"Hancock Whitney Center",29.9502,-90.0711,"",New Orleans,United States,landmark,"",,
"Royal Courts of Justice",51.513611111,-0.113333333,"",City of Westminster,United Kingdom,landmark,"",,
"Brytestuhög",55.415405,13.126582,"",Trelleborg Municipality,Sweden,cemetery,"",,
"Zwinger",51.053055555,13.733888888,"",Dresden,Germany,landmark,"",,
"Westvleteren Belgian Military Cemetery",50.92639,2.72056,"",Vleteren,Belgium,cemetery,"",,
"Charleston Baptist Temple",38.3453,-81.6289,"",West Virginia,United States,temple,"",,
"Wilaya Building",33.5903,-7.619,"",Casablanca,Morocco,landmark,"",,
"Ruzhany Palace",52.86,24.896,"",Ruzhany,Belarus,castle,"",,
"Basilica of Saint Paul outside the Walls",41.858611111,12.477222222,"",,,church,"",,
"Raffles City Hangzhou",30.250777777,120.2085,"",Hangzhou,People's Republic of China,landmark,"",,
"Polish Museum of America",41.8996,-87.6612,"",Illinois,United States,museum,"",,
"Neuer Katholischer Friedhof",51.062,13.7004,"",Dresden,Germany,cemetery,"",,
"Margarethakirche Tschrietes",46.7734,14.7209,"",Griffen,Austria,cemetery,"",,
"Mount Hope Cemetery",43.1283,-77.6214,"",Rochester,United States,cemetery,"",,
"United States Post Office and Courthouse–Baton Rouge",30.449444,-91.178889,"",Louisiana,United States,landmark,"",,
"Sec-Bois Communal Cemetery",50.70724,2.605963,"",Vieux-Berquin,France,cemetery,"",,
"International Museum of the Baroque",19.01931,-98.24661,"",Puebla,Mexico,museum,"",,
"World War I Cemetery nr 62 in Banica",49.530169444,21.308988888,"",Banica,Poland,cemetery,"",,
"Frauenkirche",48.138578587,11.573615723,"",,,landmark,"",,
"Wasquehal Communal Cemetery",50.67605,3.125026,"",Wasquehal,France,cemetery,"",,
"World War I Cemetery nr 92 in Stróżówka",49.670852777,21.146619444,"",Gorlice,Poland,cemetery,"",,
"St. Matthäus",51.1387,6.89926,"",Garath,Germany,landmark,"",,
"Loews Philadelphia Hotel",39.951666666,-75.160555555,"",Philadelphia,United States,hotel,"",,
"Laventie Communal Cemetery",50.63245,2.770155,"",Laventie,France,cemetery,"",,
"Kharkiv Choral Synagogue",49.99243889,36.23486389,"",Kharkiv,Ukraine,temple,"",,
"Metro Theater",40.796669,-73.969791,"",New York,United States,theater,"",,
"Chicago Board of Trade Building",41.878125,-87.63225,"",Chicago,United States,landmark,"",,
"Rüngsdorf Cemetery",50.6805,7.17145,"",Bad Godesberg,Germany,cemetery,"",,
"Metropolitan Cathedral of Athens",37.975278,23.73,"",Athens Municipality,Greece,church,"",,
"Passy Cemetery",48.8625,2.285277777,"",Paris,France,cemetery,"",,
"Central Synagogue of Sofia",42.70027778,23.32101111,"",Stolichna Municipality,Bulgaria,temple,"",,
"Old Dallas Central Library",32.7806,-96.7942,"",Dallas Downtown Historic District,United States,library,"",,
"Nakagin Capsule Tower",35.66564,139.76345,"",Tokyo,Japan,landmark,"",,
"Kung Ranes hög",58.5581,13.9589,"",Skövde Municipality,Sweden,cemetery,"",,
"One57",40.7652,-73.9792,"",New York,United States,landmark,"",,
"East Greenwich Pleasaunce",51.4846,0.01402,"",Royal Borough of Greenwich,United Kingdom,cemetery,"",,
"Cypress Cemetery",41.2829,-72.3546,"",Old Saybrook,United States,cemetery,"",,
"Sebourg Communal Cemetery",50.3453,3.6449,"",Sebourg,France,cemetery,"",,
"Hôtel de Soubise",48.860555555,2.358333333,"",Quartier des Archives,France,hotel,"",,
"Gate of Europe",40.466388888,-3.687777777,"",Tetuán,Spain,landmark,"",,
"Revolutionary War Cemetery",43.166944444,-73.329444444,"",Salem,United States,cemetery,"",,
"Oak Hill Cemetery",38.91275,-77.055944444,"",Washington, D.C.,United States,cemetery,"",,
"Five Points Cemetery",50.050976,2.987764,"",Léchelle,France,cemetery,"",,
"John F. Kennedy Hyannis Museum",41.6523,-70.2842,"",Barnstable,United States,museum,"",,
"Matthew Whaley School",37.2761,-76.7044,"",Virginia,United States,university,"",,
"Lee Creek Snowshoe Cabin",48.986362,-113.623897,"",Glacier County,United States,landmark,"",,
"Meier building",41.3832,2.167,"",El Raval,Spain,landmark,"",,
"K4",48.235627,16.421412,"",Vienna,Austria,landmark,"",,
"Pokrovskoye cemetery",55.596432,37.635359,"",Moscow,Russia,cemetery,"",,
"Museu Casa Kubitschek",-19.8549112,-43.9805245,"",Belo Horizonte,Brazil,landmark,"",,
"Educatorium",52.085833333,5.172222222,"",Utrecht,Netherlands,landmark,"",,
"Americas Tower",40.7572,-73.9827,"",New York,United States,landmark,"",,
"Cimetière des Arabes de Nessadiou",-21.62001,165.54767,"",Bourail,France,cemetery,"",,
"Santa Maria della Quercia, Rome",41.894554,12.471993,"",Rome,Italy,landmark,"",,
"Vil·la Hispanoàrab",41.411899,2.137031,"",Sant Gervasi-la Bonanova,Spain,landmark,"",,
"Kong Svends Høj",55.74740423,12.290146206,"",Egedal Municipality,Denmark,cemetery,"",,
"LaCrosse State Teachers College Training School Building",43.81339,-91.23199,"",La Crosse,United States,university,"",,
"Crematorium, Csömör",47.5406,19.235667,"",Csömör,Hungary,cemetery,"",,
"Rayevskoye cementry",55.872375,37.660125,"",Babushkinsky District,Russia,cemetery,"",,
"Bankinter building",40.43085,-3.690008333,"",Madrid,Spain,landmark,"",,
"Wennigser Friedhof",52.2725,9.57556,"",Wennigsen,Germany,cemetery,"",,
"Royal Liver Building",53.4058,-2.9958,"",Liverpool,United Kingdom,landmark,"",,
"Kolmex Building",52.233851111,20.982891111,"",Warsaw,Poland,landmark,"",,
"Archbasilica of St. John Lateran",41.885905555,12.506155555,"",Rome,Italy,landmark,"",,
"Botkin Street Cemetery",41.306944444,69.315,"",Tashkent,Uzbekistan,cemetery,"",,
"Cathays Cemetery",51.5017,-3.18083,"",Cardiff,United Kingdom,cemetery,"",,
"Damariscotta Baptist Church",44.031389,-69.529722,"",Maine,United States,church,"",,
"Newton City Hall and War Memorial",42.3374,-71.2088,"",Newton,United States,landmark,"",,
"Stadlauer Friedhof",48.220277777,16.456944444,"",Donaustadt,Austria,cemetery,"",,
"Hoosac Street School",42.625278,-73.114722,"",Massachusetts,United States,university,"",,
"Sovske cemetery",50.4075,30.473889,"",Kyiv,Ukraine,cemetery,"",,
"Kumamoto Station",32.789338888,130.688694444,"",Tokyo,Japan,landmark,"",,
"United States Post Office",43.0836,-76.8711,"",Clyde,United States,landmark,"",,
"Padvarių pilkapiai",55.913397,21.247881,"",Kretinga Municipality,Lithuania,cemetery,"",,
"Oud Kerkhof",50.93694,5.34167,"",Hasselt,Belgium,cemetery,"",,
"Colonial House",34.095833333,-118.359722222,"",California,United States,landmark,"",,
"Jump River Town Hall",45.351944,-90.802778,"",Jump River,United States,landmark,"",,
"Annappes Churchyard",50.627993,3.149816,"",Annappes,France,cemetery,"",,
"Centro Comercial Aragonia",41.6400777,-0.9091422,"",Zaragoza,Spain,landmark,"",,
"Biblioteca Municipal de Viana do Castelo",41.691459,-8.826788,"",Viana do Castelo,Portugal,library,"",,
"Hôtel de la Marine",48.866777777,2.323083333,"",Paris,France,hotel,"",,
"Soldatenfriedhof Böddeken",51.584,8.67,"",Büren,Germany,cemetery,"",,
"Shangyin Opera House",31.216427777,121.450730555,"",Tianpinglu Subdistrict,People's Republic of China,theater,"",,
"World War I Cemetery nr 106 in Biecz",49.73088,21.24703,"",Biecz,Poland,cemetery,"",,
"Asa Waters Mansion",42.190167,-71.762333,"",Millbury,United States,landmark,"",,
"Rabbi Dr. I. Goldstein Synagogue",31.770007,35.197748,"",Jerusalem,Israel,temple,"",,
"Pfarrkirche St. Ruprecht, Völkermarkt",46.663866766,14.623854687,"",Völkermarkt,Austria,cemetery,"",,
"Ochancourt Churchyard",50.103515,1.611292,"",Ochancourt,France,cemetery,"",,
"Postgebäude Residenzstraße 24",52.569558,13.360921,"",Berlin,Germany,landmark,"",,
"Luxembourg Palace",48.848333333,2.3375,"",Quartier de l'Odéon,France,castle,"",,
"Terrein waarin 2 grafheuvels",51.38996,5.36266,"",Eersel,Netherlands,cemetery,"",,
"Zhao Mausoleum",34.63168,108.48335,"",Liquan County,People's Republic of China,cemetery,"",,
"Polly Rosenbaum Building",33.448611,-112.091944,"",Arizona,United States,landmark,"",,
"Niotaze Methodist Episcopal Church",37.07,-96.015,"",Niotaze,United States,church,"",,
"Weill Institute for Cell and Molecular Biology",42.446870791,-76.477279693,"",Ithaca,United States,university,"",,
"Tumuli in Hemdingen",53.7752,9.856,"",Hemdingen,Germany,cemetery,"",,
"Opa-locka station",25.9003,-80.2524,"",Opa-locka,United States,landmark,"",,
"Lübeck Cathedral",53.8608,10.6858,"",Lübeck's Old City,Germany,church,"",,
"Friedhof Höchst",50.1153,8.54833,"",Frankfurt,Germany,cemetery,"",,
"Loyola Law School [Loyola Marymount University]",34.0485,-118.2717,"",Los Angeles,United States,landmark,"",,
"Hans Otto Theater",52.4031,13.0753,"",Nördliche Vorstädte,Germany,theater,"",,
"Pfarrkirche St. Bartholomäus",47.0919,9.90778,"",Bartholomäberg,Austria,cemetery,"",,
"Tumulus of Hottomont",50.62283,4.89103,"",Ramillies,Belgium,cemetery,"",,
"Timber Creek Campground Comfort Station No. 246",40.379046,-105.851788,"",Grand County,United States,landmark,"",,
"Insurance Company of North America Building",40.70827,-74.00602,"",New York,United States,landmark,"",,
"Lincoln Financial Field",39.90089,-75.16776,"",,,landmark,"",,
"Mehrabad International Airport",35.689166666,51.313611111,"",,,landmark,"",,
"Vanity Ballroom Building",42.372222,-82.946111,"",Detroit,United States,landmark,"",,
"NTT Docomo Yoyogi Building",35.684361111,139.70325,"",Tokyo,Japan,landmark,"",,
"Camphin-en-Pévèle cemetery",50.59785,3.258333,"",Camphin-en-Pévèle,France,cemetery,"",,
"432 Park Avenue",40.761666666,-73.971944444,"",New York,United States,park,"",,
"New York Life Building",40.742777777,-73.985555555,"",New York,United States,landmark,"",,
"John Deere House and Shop",41.8389,-89.4794,"",Grand Detour Township,United States,landmark,"",,
"tumuli Wolfheze near A50",52.0002,5.80551,"",Renkum,Netherlands,cemetery,"",,
"Vestre gravlund",59.931666666,10.697222222,"",Frogner,Norway,cemetery,"",,
"Elmsford Reformed Church and Cemetery",41.053889,-73.820833,"",New York,United States,cemetery,"",,
"Shitta-Bey Mosque",6.457709,3.3867,"",Lagos State,Nigeria,temple,"",,
"Yoyogi National Gymnasium",35.6675,139.700278,"",Tokyo,Japan,landmark,"",,
"Taplow burial",51.5311,-0.6951,"",Taplow,United Kingdom,cemetery,"",,
"Muslim military cemetery of Barcia",43.53607389,-6.49032361,"",Valdés,Spain,cemetery,"",,
"Terminal Sales Building",45.520544,-122.683486,"",Portland,United States,landmark,"",,
"Nonnenberg",54.782165,9.362824,"",Flensburg,Germany,cemetery,"",,
"Jewish cemeteries in Pápa",47.3195,17.4824,"",Pápa,Hungary,cemetery,"",,
"former Poznań Town Hall",52.40833333,16.93416667,"",Poznań,Poland,landmark,"",,
"Tumulus of Koninksem",50.76961,5.43902,"",Tongeren,Belgium,cemetery,"",,
"Nieuwe Uilenburgerstraat 114, Amsterdam",52.369861111,4.903166666,"",Amsterdam,Netherlands,landmark,"",,
"Napoli Afragola railway station",40.931389,14.331111,"",Afragola,Italy,landmark,"",,
"Nová správní budova Spolchemie",50.6595636,14.0295011,"",Ústí nad Labem-centrum,Czech Republic,landmark,"",,
"New Cemetery, Potsdam",52.3844,13.0712,"",Potsdam,Germany,cemetery,"",,
"Ibrox Stadium",55.853055555,-4.309166666,"",,,stadium,"",,
"Moustoir tumulus",47.612,-3.0608,"",Carnac,France,cemetery,"",,
"Wellman Apartments",43.618888888,-116.194444444,"",Boise,United States,landmark,"",,
"Christian Dior Building",35.6674,139.7072,"",Tokyo,Japan,landmark,"",,
"Park Inn Pulkovskaya",59.842744,30.318656,"",Saint Petersburg,Russia,hotel,"",,
"Crystal Cathedral",33.787396,-117.898933,"",Garden Grove,United States,church,"",,
"Zehrensdorf Indian Military Cemetery",52.1728,13.5025,"",Zossen,Germany,cemetery,"",,
"World War I Cemetery nr 198 in Błonie",49.958247,20.902593,"",Błonie, Lesser Poland Voivodeship,Poland,cemetery,"",,
"Alter Friedhof",54.096,13.3943,"",Greifswald,Germany,cemetery,"",,
"Mount Carmel Cemetery",41.8642,-87.9075,"",Hillside,United States,cemetery,"",,
"Sant'Andrea vecchia",40.24888889,9.1825,"",Orani,Italy,cemetery,"",,
"Marqués de Riscal Hotel",42.51161,-2.61801,"",Elciego,Spain,hotel,"",,
"Zagreb Synagogue",45.8118,15.9781,"",Zagreb,Croatia,temple,"",,
"Thivencelle Churchyard",50.439595,3.634564,"",Thivencelle,France,cemetery,"",,
"Common Burying Ground",41.49638889,-71.31555556,"",Newport,United States,cemetery,"",,
"Chillon Castle",46.414166666,6.9275,"",Veytaux,Switzerland,castle,"",,
"Nécropole nationale de Rétaud",45.668059,-0.753992,"",Rétaud,France,cemetery,"",,
"Chin Pao San",25.251,121.604,"",Jinshan District,Taiwan,cemetery,"",,
"CITIC Plaza",23.144444444,113.319444444,"",,,landmark,"",,
"Petersfriedhof",47.796666666,13.045555555,"",Salzburg,Austria,cemetery,"",,
"Church of Saint Blaise, Zagreb",45.81114,15.96069,"",Zagreb,Croatia,church,"",,
"Apollo Theatre",51.5115,-0.133417,"",City of Westminster,United Kingdom,theater,"",,
"Chain Bridge Road School",38.929167,-77.096667,"",Washington, D.C.,United States,university,"",,
"Prospect Hill School",42.1342,-72.7461,"",Westfield,United States,university,"",,
"Thomas Mann House",34.059009,-118.499303,"",Pacific Palisades,United States,landmark,"",,
"Washington National Airport Terminal and South Hangar Line",38.84793,-77.04386,"",Arlington County,United States,landmark,"",,
"Miho Museum",34.91592222,136.01582222,"",Kōka-shi,Japan,museum,"",,
"Palazzo Mezzabarba",45.18482,9.15965,"",Pavia,Italy,castle,"",,
"North Maroc Intercommunal Cemetery",50.454888,2.744132,"",Grenay,France,cemetery,"",,
"Brunswick Cathedral",52.264166666,10.524166666,"",Brunswick,Germany,church,"",,
"580 California Street",37.7929,-122.404,"",San Francisco,United States,landmark,"",,
"Taylor School",41.534722,-90.586111,"",Iowa,United States,university,"",,
"Tumulus of Bougon",46.374,-0.0675,"",Bougon,France,cemetery,"",,
"World War I Cemetery nr 44 in Długie",49.4711,21.3813,"",Q3914975,Poland,cemetery,"",,
"International Museum of Horology",47.10032,6.83094,"",La Chaux-de-Fonds,Switzerland,museum,"",,
"Hohmichele",48.093889,9.383611,"",Altheim,Germany,cemetery,"",,
"Boston City Hall",42.3603,-71.058,"",Boston,United States,landmark,"",,
"St. George's Anglican Church",40.426497222,-3.682852777,"",Recoletos,Spain,church,"",,
"Valley of the Kings",25.74025,32.602358,"",Luxor,Egypt,cemetery,"",,
"Kansai International Airport",34.430555555,135.230277777,"",Izumisano,Japan,landmark,"",,
"Salisbury Cathedral",51.064722,-1.7975,"",Salisbury,United Kingdom,church,"",,
"Lazarevskoe (Saint-Lazar) cemetery in Ryazan",54.621666666,39.727222222,"",Ryazan,Russia,cemetery,"",,
"Ada Arts and Heritage Center",34.771053,-96.676472,"",Ada,United States,landmark,"",,
"Palais Garnier",48.871944444,2.331666666,"",Quartier de la Chaussée-d'Antin,France,castle,"",,
"Arena das Dunas",-5.82681,-35.21236,"",,,stadium,"",,
"Pfarrkirche Gratkorn",47.135,15.3505,"",Gratkorn,Austria,cemetery,"",,
"Benesse House",34.445,133.990889,"",Naoshima,Japan,landmark,"",,
"Tramway Gas Station",33.8584,-116.558,"",Palm Springs,United States,landmark,"",,
"Casetes Borràs",41.3697,2.12226,"",La Torrassa,Spain,landmark,"",,
"Rock Creek Cemetery",38.947778,-77.013056,"",Washington, D.C.,United States,cemetery,"",,
"Saint Joseph and Our Lady of Lourdes Church",40.84046,14.30672,"",Naples,Italy,church,"",,
"Koga Park Café",36.1774,139.7003,"",Koga,Japan,park,"",,
"Weißensee Cemetery",52.544722222,13.458333333,"",Pankow,Germany,cemetery,"",,
"Gildhøj",55.6544,12.4162,"",Brøndby Municipality,Denmark,cemetery,"",,
"Martinskirche",48.3044,14.2792,"",Linz,Austria,cemetery,"",,
"Geusenfriedhof",50.925416666,6.926916666,"",Lindenthal,Germany,cemetery,"",,
"Casablanca Finance City Tower",33.56355,-7.661,"",Casablanca,Morocco,landmark,"",,
"Antwerp City Hall",51.22138889,4.39944444,"",Antwerp,Belgium,landmark,"",,
"Portuguese-Israelic graveyard, The Hague",52.08917,4.29583,"",The Hague,Netherlands,cemetery,"",,
"Charles Bridge",50.086388888,14.411944444,"",Prague 1,Czech Republic,landmark,"",,
"With Harajuku",35.670556,139.703194,"",Tokyo,Japan,landmark,"",,
"Tumuli of Libersart",50.6552,4.72158,"",Walhain,Belgium,cemetery,"",,
"Fondation suisse",48.818194903,2.342275276,"",Paris,France,landmark,"",,
"Inglewood Park Cemetery",33.9675,-118.339,"",Inglewood,United States,cemetery,"",,
"Adina Mosque",25.15255737,88.16423798,"",West Bengal,India,temple,"",,
"Fairview Cemetery",35.6754901,-105.9590801,"",Santa Fe,United States,cemetery,"",,
"Fouquieres Churchyard",50.514515,2.610824,"",Fouquières-lès-Béthune,France,cemetery,"",,
"Philip Johnson House",52.5091,13.3893,"",Bezirk Mitte,Germany,landmark,"",,
"International Commerce Centre",22.303391666,114.160169444,"",,,landmark,"",,
"Halvdanshaugen",60.3961,10.512,"",Gran Municipality,Norway,cemetery,"",,
"The Shard",51.504444444,-0.086666666,"",Southwark,United Kingdom,landmark,"",,
"municipal park cemetery of Essen",51.4508,7.0485,"",Essen,Germany,cemetery,"",,
"Friedrichswerderscher Friedhof",52.486388888,13.403888888,"",Friedrichshain-Kreuzberg,Germany,cemetery,"",,
"Mtatsminda Pantheon",41.69602,44.788684,"",Tbilisi,Georgia,cemetery,"",,
"Settles Hotel",32.25282876,-101.47520062,"",Big Spring,United States,hotel,"",,
"Stadio Renato Dall'Ara",44.4922,11.3098,"",,,landmark,"",,
"City View Cemetery",44.9192,-123.053,"",Salem,United States,cemetery,"",,
"Arena Lviv",49.775278055,24.027778055,"",,,stadium,"",,
"Hayward Gallery",51.5061,-0.115556,"",London Borough of Lambeth,United Kingdom,art_gallery,"",,
"Ossuaire et croix de cimetière de Saint-Caradec-Trégomel",48.0372,-3.34806,"",Saint-Caradec-Trégomel,France,cemetery,"",,
"Sierraville School",39.584444444,-120.368611111,"",Sierra County,United States,university,"",,
"Hôtel Ritz Paris",48.86797,2.32889,"",,,hotel,"",,
"Anzeiger-Hochhaus",52.3769,9.73139,"",Mitte,Germany,landmark,"",,
"Shanghai World Financial Center",31.236666666,121.502777777,"",Pudong,People's Republic of China,landmark,"",,
"Terrein waarin grafheuvel # 45115",52.21586,5.665,"",Barneveld,Netherlands,cemetery,"",,
"Villa Carlota",41.481330555,2.269411111,"",Tiana,Spain,landmark,"",,
"Hollywood Forever Cemetery",34.088889,-118.319444,"",Los Angeles,United States,cemetery,"",,
"Panathenaic Stadium",37.968333333,23.741111111,"",,,stadium,"",,
"Auditorio de Tenerife",28.456067,-16.251278,"",Santa Cruz de Tenerife,Spain,landmark,"",,
"East Line Union Cemetery",42.93452,-73.825,"",New York,United States,cemetery,"",,
"Dulaney Valley Memorial Gardens",39.456,-76.6165,"",Baltimore County,United States,cemetery,"",,
"Drujba Sanatorium, Kurpaty",44.445332,34.133667,"",Kurpaty,Ukraine,landmark,"",,
"Shikoku Mura Gallery",34.345625,134.108958,"",Takamatsu,Japan,art_gallery,"",,
"Krasny Bor Forest, Karelia",61.649813,34.574276,"",Derevyannoye,Russia,cemetery,"",,
"Death Canyon Barn",43.664722,-110.829167,"",Teton County,United States,landmark,"",,
"General Motors Building",40.763888888,-73.9725,"",New York,United States,landmark,"",,
"Terrein waarin twee grafheuvels",52.10717,5.65475,"",Ede,Netherlands,cemetery,"",,
"Naval Reserve Armory",47.62944444,-122.33666667,"",Seattle,United States,landmark,"",,
"Frauenkirchhof",51.05192566,13.74162483,"",Dresden,Germany,cemetery,"",,
"Casa Orri",41.9781,2.82444,"",Girona,Spain,landmark,"",,
"Somerset House",51.511111111,-0.117777777,"",City of Westminster,United Kingdom,landmark,"",,
"Gib Hill",53.1668,-1.76461,"",Middleton and Smerrill,United Kingdom,cemetery,"",,
"Freiherr-vom-Stein-Gymnasium",51.610555555,7.515833333,"",Lünen,Germany,landmark,"",,
"Bertram Hall at Radcliffe College",42.380556,-71.125278,"",Cambridge,United States,university,"",,
"Chapel of the Chimes",37.8317,-122.246,"",Oakland,United States,cemetery,"",,
"Ransom County Courthouse",46.442222,-97.684444,"",Lisbon,United States,landmark,"",,
"Navje",46.060834632,14.511920551,"",Ljubljana City Municipality,Slovenia,cemetery,"",,
"1 avenue Paul-Doumer",48.861651778,2.286046357,"",Paris,France,landmark,"",,
"Favreuil British Cemetery",50.122645,2.865209,"",Favreuil,France,cemetery,"",,
"Cologne Tower",50.9481,6.9431,"",Neustadt-Nord,Germany,landmark,"",,
"H. G. Vaughn House",42.206667,-71.369167,"",Sherborn,United States,landmark,"",,
"Kimpton Surfcomber Hotel",25.7928,-80.1294,"",Miami Beach,United States,hotel,"",,
"Terrein met twee grafheuvels",53.10144,6.65469,"",Tynaarlo,Netherlands,cemetery,"",,
"Lake Hotel",44.54986,-110.40011,"",Teton County,United States,hotel,"",,
"Film Center Building",40.76,-73.991111111,"",New York,United States,landmark,"",,
"Algemene Begraafplaats Leidsestraatweg",52.09277,4.95215,"",Woerden,Netherlands,cemetery,"",,
"Villa Almerico Capra (La Rotonda)",45.531524,11.560268,"",Vicenza,Italy,landmark,"",,
"Israel Museum",31.7725,35.204166666,"",,,museum,"",,
"Worker's Accident Insurance Company for Moravia and Silesia in Brno",49.1976402,16.6147759,"",Zábrdovice,Czech Republic,landmark,"",,
"Antioch Missionary Baptist Church Cemetery",34.393611,-91.983889,"",Jefferson County,United States,cemetery,"",,
"Hard Rock Stadium",25.958055555,-80.238888888,"",,,stadium,"",,
"Cataraqui Cemetery",44.264444444,-76.541111111,"",Kingston,Canada,cemetery,"",,
"Tour CIBC",45.4985,-73.5709,"",Ville-Marie,Canada,landmark,"",,
"Pfarrkirche Heiliger Nikolaus, Radenthein",46.802415,13.707081,"",Radenthein,Austria,cemetery,"",,
"Hôtel de Ville, Paris",48.856389,2.352222,"",,,hotel,"",,
"Cypress Hills Cemetery",40.689166666,-73.875277777,"",New York,United States,cemetery,"",,
"Kishi Memorial Gymnasium",35.66634,139.70129,"",Tokyo,Japan,landmark,"",,
"San Francesco di Paola",40.8353,14.2475,"",Naples,Italy,landmark,"",,
"Governorate's Palace",41.90238056,12.451225,"",Vatican City,Vatican City,castle,"",,
"Stockholm Synagogue",59.331891666,18.074208333,"",Stockholm,Sweden,temple,"",,
"Kinsky Palace",50.08805556,14.42166667,"",Prague 1,Czech Republic,castle,"",,
"Contrabands and Freedmen Cemetery",38.7944,-77.0497,"",Virginia,United States,cemetery,"",,
"Hilltop Hotel",35.6980657,139.7612751,"",Tokyo,Japan,hotel,"",,
"Church of St. Elisabeth",48.143388888,17.116833333,"",Bratislava,Slovakia,church,"",,
"Apollo Theater",40.809932,-73.950113,"",New York,United States,theater,"",,
"Louisiana State Capitol",30.457072222,-91.187405555,"",Baton Rouge,United States,landmark,"",,
"Campo Santo",51.063889,3.749167,"",Ghent,Belgium,cemetery,"",,
"Pont-Remy British Cemetery",50.059188,1.907724,"",Pont-Remy,France,cemetery,"",,
"Certosa di Bologna",44.497405,11.307747,"",Bologna,Italy,cemetery,"",,
"Galgebakke",55.37624,11.33529,"",Slagelse Municipality,Denmark,cemetery,"",,
"Bihucourt Communal Cemetery",50.12373,2.801201,"",Bihucourt,France,cemetery,"",,
"United Office Building",43.087222,-79.0625,"",Niagara Falls,United States,landmark,"",,
"Caracas Museum of Fine Arts",10.500638888,-66.896972222,"",San Agustín,Venezuela,museum,"",,
"Villa Medici",41.90827,12.48252,"",Rome,Italy,landmark,"",,
"Palacio de Correos de Mexico",19.43568611,-99.1404,"",Mexico City,Mexico,castle,"",,
"Leopoldstädter Tempel",48.2139,16.385,"",Leopoldstadt,Austria,landmark,"",,
"Philharmonie Luxembourg",49.61849444,6.14208889,"",Luxembourg,Luxembourg,landmark,"",,
"Westgaarde",52.36,4.774167,"",Amsterdam,Netherlands,cemetery,"",,
"Roman Catholic cemetery Oudewater",52.020164,4.876492,"",Oudewater,Netherlands,cemetery,"",,
"Tempietto",41.88875,12.46641667,"",Rome,Italy,landmark,"",,
"Mariupol Cemetery",47.222777777,38.831944444,"",Taganrog,Russia,cemetery,"",,
"Chodkiewicz Palace",52.24722222,21.00916667,"",Śródmieście,Poland,castle,"",,
"Crowne Plaza Copenhagen Towers",55.627155,12.577028,"",Copenhagen Municipality,Denmark,landmark,"",,
"33 Thomas Street",40.71654,-74.00592,"",New York,United States,landmark,"",,
"Heninel Communal Cemetery Extension",50.2392,2.870267,"",Héninel,France,cemetery,"",,
"Arshakuni Palace",41.7014,44.793,"",Mtatsminda District,Georgia,castle,"",,
"Calverton National Cemetery",40.925363888,-72.815472222,"",Riverhead,United States,cemetery,"",,
"Braunes Haus",48.1453,11.5675,"",Maxvorstadt,Germany,landmark,"",,
"Ex casa della Telefonica Tirrena",41.884780555,12.508597222,"",Rome,Italy,landmark,"",,
"Taipei 101",25.033611111,121.564722222,"",Xicun Village,Taiwan,landmark,"",,
"One Madison",40.74064,-73.98807,"",New York,United States,landmark,"",,
"Tate Liverpool",53.40075,-2.99445,"",Liverpool,United Kingdom,landmark,"",,
"Santa Maria presso San Celso Church",45.454396,9.187669,"",Milan,Italy,church,"",,
"Scuola Grande di San Rocco",45.436571,12.325309,"",Venice,Italy,landmark,"",,
"Mount Olivet Cemetery",41.68888889,-87.69166667,"",Chicago,United States,cemetery,"",,
"Chungkai War Cemetery",14.00583,99.51513,"",Tha Makham,Thailand,cemetery,"",,
"US Post Office-Somersworth Main",43.2592,-70.8717,"",Somersworth,United States,landmark,"",,
"Cemetery Nordheim",47.4047,8.53189,"",Unterstrass,Switzerland,cemetery,"",,
"Montreal Building",-23.540111111,-46.636666666,"",São Paulo,Brazil,landmark,"",,
"Nesvizh Castle",53.222877777,26.691736111,"",Niasviž,Belarus,castle,"",,
"Louvre Pyramid",48.861,2.335861111,"",Paris,France,landmark,"",,
"Terrein waarin grafheuvel #46071",52.41521,6.85134,"",Tubbergen,Netherlands,cemetery,"",,
"One Marina Boulevard",1.28226,103.852,"",Downtown Core,Singapore,landmark,"",,
"Celle Castle",52.6239,10.0775,"",Celle,Germany,castle,"",,
"St. Joseph und Medardus",51.2138,7.63006,"",Lüdenscheid,Germany,landmark,"",,
"Esplanada dos Ministérios, Bloco L",-15.7951,-47.8731,"",Brasília,Brazil,landmark,"",,
"Klagenfurt (Annabichl) Cemetery",46.6519,14.3172,"",Klagenfurt am Wörthersee,Austria,cemetery,"",,
"Chicago Women's Club Building",41.869516,-87.625093,"",Chicago,United States,landmark,"",,
"Synagoge",48.8594,16.0472,"",Znojmo,Czech Republic,landmark,"",,
"Salzburger Kommunalfriedhof",47.777527777,13.047002777,"",Salzburg,Austria,cemetery,"",,
"Centre Pompidou-Metz",49.108056,6.18,"",Metz,France,landmark,"",,
"Blanche Kelso Bruce Elementary School",38.929722222,-77.025555555,"",Washington, D.C.,United States,university,"",,
"Floral Park Cemetery",40.397,-74.5005,"",South Brunswick,United States,cemetery,"",,
"Chief Wapello's Memorial Park",40.991944,-92.292222,"",Wapello County,United States,cemetery,"",,
"Mannheim Main Cemetery",49.4908,8.49196,"",Mannheim,Germany,cemetery,"",,
"Soviet military cemetery in Bielsko-Biała",49.8291,19.0656,"",Bielsko-Biała,Poland,cemetery,"",,
"Feld der Vereinten Nationen",52.0578,11.6751,"",Magdeburg,Germany,cemetery,"",,
"La Florida Cemetery, Madrid",40.426525,-3.724463888,"",Madrid,Spain,cemetery,"",,
"Kazanskoe cemetery (Pushkin)",59.694247222,30.388591666,"",Pushkin,Russia,cemetery,"",,
"Gallatin County Courthouse",45.679722222,-111.041111111,"",Bozeman,United States,landmark,"",,
"Hot Lake Hotel",45.243333,-117.956667,"",Union County,United States,hotel,"",,
"Fort de Mons",50.642,3.1194,"",Mons-en-Barœul,France,castle,"",,
"Batavia Cemetery",42.9933,-78.1714,"",Batavia,United States,cemetery,"",,
"Deutsche Bank Place",-33.866861111,151.211638888,"",New South Wales,Oceania,landmark,"",,
"World War I Cemetery nr 56 in Smerekowiec",49.5074,21.2386,"",Smerekowiec,Poland,cemetery,"",,
"Gehry Residence",34.0352,-118.485,"",Santa Monica,United States,landmark,"",,
"Stadion Energa Gdańsk",54.39,18.640278,"",,,stadium,"",,
"Cimetière juif de Saint-Rémy-de-Provence",43.7794,4.82889,"",Saint-Rémy-de-Provence,France,cemetery,"",,
"Les cinq Tombes",50.65097,5.19878,"",Geer,Belgium,cemetery,"",,
"Ole Rømers Høj",55.6846,12.302,"",Høje-Taastrup Municipality,Denmark,cemetery,"",,
"House of Culture and Library",48.3220701,21.5669185,"",Sárospatak,Hungary,library,"",,
"Воронежская синагога",51.6582,39.1968,"",Voronezh,Russia,landmark,"",,
"Ciudad BBVA",40.501166666,-3.664166666,"",Madrid,Spain,landmark,"",,
"Day Nursery",-22.963641721,-43.203580485,"",Rio de Janeiro,Brazil,landmark,"",,
"Dornbacher Cemetery",48.227861111,16.311166666,"",Vienna,Austria,cemetery,"",,
"Burial mount Grootebroek",52.69053,5.22732,"",Stede Broec,Netherlands,cemetery,"",,
"Massachusetts State House",42.357708333,-71.063563888,"",Boston,United States,landmark,"",,
"Onze-Lieve-Vrouwekathedraal",51.220268,4.40025,"",,,landmark,"",,
"Juliusz Słowacki Theatre",50.063888888,19.943056111,"",Kraków,Poland,theater,"",,
"United Nations Secretariat Building",40.749,-73.968,"",New York,United States,landmark,"",,
"Primate's Palace",48.14374,17.109808,"",Bratislava,Slovakia,castle,"",,
"Bonn Minster",50.733408,7.099789,"",Stadtbezirk Bonn,Germany,church,"",,
"cemetery Willeskop",52.022205555,4.890277777,"",Oudewater,Netherlands,cemetery,"",,
"Franklin County Courthouse",42.09583333,-111.87722222,"",Preston,United States,landmark,"",,
"Revolutionary Martyrs’ Cemetery",39.0783,125.827898,"",Pyongyang,North Korea,cemetery,"",,
"Lillers Communal Cemetery",50.5694,2.4778,"",Lillers,France,cemetery,"",,
"Crown Hill Cemetery",39.818889,-86.1725,"",Indianapolis,United States,cemetery,"",,
"Horniman Museum and Gardens",51.440555555,-0.060833333,"",London Borough of Lewisham,United Kingdom,museum,"",,
"Franciscan Church, Salzburg",47.7982,13.0441,"",Salzburg,Austria,church,"",,
"Caju Cemetery",-22.88305556,-43.22194444,"",Rio de Janeiro,Brazil,cemetery,"",,
"Aldershot Military Cemetery",51.2553,-0.746944,"",Rushmoor,United Kingdom,cemetery,"",,
"Milano Centrale railway station",45.485658,9.203988,"",,,landmark,"",,
"Mariinskyi Park",50.446944444,30.539722222,"",Pecherskyi District,Ukraine,cemetery,"",,
"Othée Tumulus",50.72329,5.45953,"",Awans,Belgium,cemetery,"",,
"Shirokorechenskoe Cemetery",56.813888888,60.527777777,"",Yekaterinburg,Russia,cemetery,"",,
"United States Post Office",38.8856,-77.0956,"",Arlington County,United States,landmark,"",,
"Cimitero monumentale di Caltagirone",37.2325,14.53722222,"",Caltagirone,Italy,cemetery,"",,
"Agricultural Engineering Building",43.074803,-89.410606,"",Madison,United States,landmark,"",,
"Torre Moeve",40.475555555,-3.687777777,"",Madrid,Spain,landmark,"",,
"Bursa Green Mosque",40.182194444,29.074611111,"",Bursa,Turkey,temple,"",,
"Johannisfriedhof, Dresden",51.0366,13.8133,"",Dresden,Germany,cemetery,"",,
"Dalgaards Østerhøj",56.785214137,8.787433029,"",Morsø Municipality,Denmark,cemetery,"",,
"Kagraner Friedhof",48.2536,16.4499,"",Vienna,Austria,cemetery,"",,
"Lenin's Mausoleum",55.753611111,37.619722222,"",,,landmark,"",,
"São Paulo Cathedral",-23.551247,-46.634374,"",Sé District,Brazil,church,"",,
"Trier Main Cemetery",49.7686,6.65383,"",Trier,Germany,cemetery,"",,
"Stadttempel",48.211649,16.374825,"",Innere Stadt,Austria,landmark,"",,
"Alter St.-Matthäus-Kirchhof Berlin",52.490277777,13.366944444,"",Tempelhof-Schöneberg,Germany,cemetery,"",,
"Centre Georges Pompidou",48.860642,2.352245,"",Quartier Saint-Merri,France,landmark,"",,
"3 World Trade Center",40.710923,-74.011608,"",New York,United States,landmark,"",,
"Asamkirche",48.13520696,11.569513967,"",Munich,Germany,landmark,"",,
"London King's Cross railway station",51.530972222,-0.123333333,"",,,landmark,"",,
"One Atlantic Center",33.7869,-84.3872,"",Atlanta,United States,landmark,"",,
"Pfarrkirche Heilige Walburga, Eberstein",46.7696,14.5493,"",Eberstein,Austria,cemetery,"",,
"Moeuvres Communal Cemetery Extension",50.166177,3.062779,"",Mœuvres,France,cemetery,"",,
"Carnegie Hall",40.765,-73.98,"",,,landmark,"",,
"Cimetière Sainte-Marguerite",48.8531,2.38115,"",Paris,France,cemetery,"",,
"Champeaux cemetery of Montmorency",48.99362,2.323514,"",Montmorency,France,cemetery,"",,
"Hellebækgård",56.0711,12.5534,"",Helsingør Municipality,Denmark,landmark,"",,
"Lifshyts synagogue, Vinnytsia",49.233383333,28.467466666,"",Vinnytsia,Ukraine,temple,"",,
"Palace of Fine arts",19.435277777,-99.141388888,"",Cuauhtémoc,Mexico,castle,"",,
"Preobrazhenskoe Jewish Cemetery",59.857777777,30.453055555,"",Saint Petersburg,Russia,cemetery,"",,
"East Parish Burying Ground",42.3423,-71.1917,"",Newton,United States,cemetery,"",,
"Soviet war memorial in Woltersdorf",52.450777777,13.752555555,"",Woltersdorf,Germany,cemetery,"",,
"Richsquare Friends Meetinghouse and Cemetery",39.85274,-85.34123,"",Franklin Township,United States,cemetery,"",,
"Ken Iwata Mother and Child Museum, Imabari City",34.194785956,132.954179605,"",Imabari,Japan,museum,"",,
"Philip Buehner House",45.512222,-122.605,"",Oregon,United States,landmark,"",,
"Villers-Carbonnel Communal Cemetery",49.876616,2.894198,"",Villers-Carbonnel,France,cemetery,"",,
"Hallett Flats–Rawson & Co. Apartment Building",41.585,-93.633611,"",Iowa,United States,landmark,"",,
"Begraafplaats Stuiverstraat",51.20889,2.91417,"",Ostend,Belgium,cemetery,"",,
"Melrose Abbey",55.599561648,-2.718688692,"",Scottish Borders,United Kingdom,cemetery,"",,
"The Socialists' Memorial",52.5149213,13.5112267,"",Lichtenberg,Germany,cemetery,"",,
"Zonnehuis",52.413333333,4.891388888,"",Amsterdam,Netherlands,landmark,"",,
"Auto Posto Clube dos 500",-22.78805988,-45.156405482,"",Guaratinguetá,Brazil,landmark,"",,
"National Art Museum of Azerbaijan",40.363056,49.831667,"",,,museum,"",,
"Grafheuvel #45194",52.25214,5.92489,"",Apeldoorn,Netherlands,cemetery,"",,
"Premier Hotel Mojiko",33.946833,130.962556,"",Kitakyushu,Japan,hotel,"",,
"Sammallahdenmäki",61.11767375,21.7751687,"",Rauma,Finland,cemetery,"",,
"Basilica and Expiatory Church of the Holy Family",41.40369,2.17433,"",Sagrada Família,Spain,church,"",,
"World War I Cemetery nr 15 in Harklowa",49.710277777,21.342083333,"",Harklowa, Podkarpackie Voivodeship,Poland,cemetery,"",,
"Grand Théâtre de Québec",46.80633611,-71.22175278,"",Quebec City,Canada,theater,"",,
"Lisht",29.570277777,31.231111111,"",Markaz al ‘Ayyāţ,Egypt,cemetery,"",,
"La Chapelle d'Armentières Communal Cemetery",50.673362,2.910454,"",La Chapelle-d'Armentières,France,cemetery,"",,
"Hotié de Viviane",48.00022222,-2.26869444,"",Paimpont,France,cemetery,"",,
"A. E. Larson Building",46.6022,-120.504,"",Yakima,United States,landmark,"",,
"Friedhof am Hörnli",47.565694444,7.639555555,"",Riehen,Switzerland,cemetery,"",,
"Can Casas",41.451346,2.244555,"",Badalona,Spain,landmark,"",,
"Italian Military Cemetery of Bligny",49.1884,3.84087,"",Bligny,France,cemetery,"",,
"Tumulus of Saives",50.65856,5.23911,"",Faimes,Belgium,cemetery,"",,
"Solomianka cemetery",50.428333333,30.471111111,"",Solomianka Raion,Ukraine,cemetery,"",,
"Yamanashi Broadcasting and Press Centre",35.668333,138.570833,"",Yamanashi,Japan,landmark,"",,
"Colden Family Cemetery",41.521111,-74.146389,"",Montgomery,United States,cemetery,"",,
"Carlton Tel Aviv",32.08652,34.76955,"",Tel Aviv,Israel,landmark,"",,
"51 Astor Place",40.73027778,-73.99027778,"",,United States,architecture,"",,
"Cardiff City Stadium",51.472778,-3.203056,"",,,stadium,"",,
"St Gabriel's Church, Blackburn",53.774479,-2.476983,"",Blackburn with Darwen,United Kingdom,church,"",,
"Henin-Lietard Communal Cemetery",50.422824,2.95359,"",Hénin-Beaumont,France,cemetery,"",,
"Dombrabad cemetery",41.255833333,69.174166666,"",Tashkent,Uzbekistan,cemetery,"",,
"Royal Palace of Brussels",50.841667,4.362222,"",City of Brussels,Belgium,castle,"",,
"KPN Tower",51.907222222,4.489166666,"",Rotterdam,Netherlands,landmark,"",,
"Naumburg Cathedral",51.154722222,11.803888888,"",Naumburg,Germany,church,"",,
"White House",55.754675,37.572968,"",Presnensky District,Russia,landmark,"",,
"Yokosuka Arts Theatre",35.2811,139.663,"",Tokyo,Japan,theater,"",,
"Lower Windy Creek Ranger Cabin No. 15",63.4647,-148.827,"",Denali Borough,United States,landmark,"",,
"Akureyrarkirkja",65.67984,-18.09097,"",Akureyri,Iceland,landmark,"",,
"Saint Giles Church",47.2177,15.4018,"",Semriach,Austria,cemetery,"",,
"Eppiesbargie",52.84759,6.86586,"",Borger-Odoorn,Netherlands,cemetery,"",,
"Ostfriedhof",50.9643,7.07733,"",Dellbrück,Germany,cemetery,"",,
"Church of St. Anthony of Padua",41.032317,28.977234,"",Istanbul,Turkey,church,"",,
"Lumber",58.276694,13.276629,"",Vara Municipality,Sweden,cemetery,"",,
"20 Times Square",40.759305,-73.984163,"",New York City,United States,landmark,"",,
"Kay-Nah-Chi-Wah-Nung",48.6467,-94.0742,"",Rainy River District,Canada,cemetery,"",,
"Aukštųjų Rusokų pilkapynas",54.80833333,25.20222222,"",Avižieniai Eldership,Lithuania,cemetery,"",,
"Antakalnis Cemetery",54.698787,25.320954,"",Vilnius City Municipality,Lithuania,cemetery,"",,
"Center of Innovation Anacleto Angelini",-33.497866,-70.61515,"",Macul,Chile,landmark,"",,
"Russian Museum",59.938592,30.332221,"",,,museum,"",,
"Wild Basin House",40.208056,-105.565556,"",Boulder County,United States,landmark,"",,
"Amalienburg",48.15610224,11.500380228,"",Neuhausen-Nymphenburg,Germany,landmark,"",,
"Jackson County Courthouse",39.0925,-94.382778,"",Independence,United States,landmark,"",,
"16 rue Chardon-Lagache",48.844966379,2.266328435,"",Paris,France,landmark,"",,
"Hotel Kirkwood (Des Moines)",41.5875,-93.609167,"",Des Moines,United States,hotel,"",,
"Bataclan",48.863055555,2.370833333,"",,,landmark,"",,
"Federal Office Building",47.604444,-122.335,"",Seattle,United States,landmark,"",,
"Palazzo Grimani di San Luca",45.43595833,12.33280556,"",Venice,Italy,castle,"",,
"Indiana Bell Building",37.97361111,-87.57111111,"",Indiana,United States,landmark,"",,
"Cathedral of the Immaculate Conception",55.767222222,37.571111111,"",Presnensky District,Russia,church,"",,
"Esquelbecq Communal Cemetery",50.889,2.4329,"",Esquelbecq,France,cemetery,"",,
"Barbadoes Street Cemetery",-43.524265,172.6455,"",Christchurch City,New Zealand,cemetery,"",,
"First International Bank Tower",32.063611111,34.774166666,"",Tel Aviv,Israel,landmark,"",,
"Ottawa station",45.4164,-75.6517,"",Ottawa,Canada,landmark,"",,
"Beijing National Stadium",39.991544,116.390478,"",Aoyuncun Subdistrict,People's Republic of China,stadium,"",,
"University Hall",42.374444,-71.118056,"",Cambridge,United States,university,"",,
"Vingshögarna",56.576205,13.103014,"",Laholm Municipality,Sweden,cemetery,"",,
"New Michael Palace",59.944064,30.322132,"",Saint Petersburg,Russia,castle,"",,
"Concertgebouw",52.356305555,4.879083333,"",Amsterdam,Netherlands,landmark,"",,
"Sambadrome Marquês de Sapucaí",-22.911384,-43.196851,"",Rio de Janeiro,Brazil,landmark,"",,
"Le Nemausus",43.827693,4.372981,"",Nîmes,France,landmark,"",,
"Cemetery of Soviet Prisoners of War in Naujoji Vilnia",54.684,25.424,"",Vilnius,Lithuania,cemetery,"",,
"Alter Friedhof (Baiertal)",49.3007,8.73773,"",Wiesloch,Germany,cemetery,"",,
"Ausstellungsgebäude Sammlung Goetz",48.1661,11.6231,"",,Germany,architecture,"",,
"Cirencester Amphitheatre",51.712,-1.97261,"",Cirencester,United Kingdom,cemetery,"",,
"Somain Communal Cemetery",50.365514,3.280472,"",Somain,France,cemetery,"",,
"Dumfries Cemetery",38.5686,-77.3332,"",Virginia,United States,cemetery,"",,
"GUM",55.754722222,37.6215,"",,,landmark,"",,
"Grafheuvel Monnikenbosch",52.14958,5.33402,"",Soest,Netherlands,cemetery,"",,
"Khovanskoye Cemetery",55.611516666,37.447627777,"",Moscow,Russia,cemetery,"",,
"Royal Palace, Oslo",59.916911111,10.727566666,"",Oslo Municipality,Norway,castle,"",,
"Капотнинское кладбище",55.638663888,37.790527777,"",Moscow,Russia,cemetery,"",,
"European Court of Human Rights building",48.59694444,7.77472222,"",Strasbourg,France,landmark,"",,
"BMW Welt",48.17694,11.55667,"",Milbertshofen-Am Hart,Germany,landmark,"",,
"Pont-Noyelle Communal Cemetery",49.942364,2.443587,"",Pont-Noyelles,France,cemetery,"",,
"27 Wałowa Street in Gdańsk",54.358687954,18.654087689,"",Gdańsk,Poland,landmark,"",,
"Altria Theater",37.5462,-77.4522,"",Richmond,United States,theater,"",,
"Brown Hotel",38.2466,-85.757803,"",Louisville,United States,hotel,"",,
"Strawberry Arena",59.3725,18,"",,,stadium,"",,
"Francis Buttrick Library",42.376389,-71.239722,"",Waltham,United States,library,"",,
"Meret Oppenheim Hochhaus",47.546277777,7.587308333,"",Basel-Gundeldingen,Switzerland,landmark,"",,
"Andrew Melville Hall, University of St Andrews, North Haugh",56.3405,-2.81741,"",Fife,United Kingdom,university,"",,
"Festubert Communal Cemetery",50.5432,2.7292,"",Festubert,France,cemetery,"",,
"Komunariv Cemetery",44.600277777,33.513888888,"",Sevastopol,Ukraine,cemetery,"",,
"Emanuel United Church of Christ Cemetery",35.842778,-80.115556,"",North Carolina,United States,cemetery,"",,
"Basilica of Notre-Dame de Fourvière",45.762291666,4.822555555,"",Lyon,France,church,"",,
"Vieux-Berquin Communal Cemetery",50.6957,2.6486,"",Vieux-Berquin,France,cemetery,"",,
"Stadio Friuli",46.081603,13.200136,"",,,landmark,"",,
"Le Crotoy Communal Cemetery",50.22003,1.622471,"",Le Crotoy,France,cemetery,"",,
"St. Maria Königin (Düsseldorf)",51.2843,6.7942,"",Lichtenbroich,Germany,landmark,"",,
"East cemetery in Essen",51.4469,7.03111,"",Essen,Germany,cemetery,"",,
"Sneglehøj auf Møn",54.993736925,12.322446227,"",Vordingborg Municipality,Denmark,cemetery,"",,
"Cemetery on Sienkiewicza Street in Katowice",50.25,19.020833333,"",Śródmieście,Poland,cemetery,"",,
"Ocean Heights",25.090914,55.149989,"",Emirate of Dubai,United Arab Emirates,landmark,"",,
"English Cemetery, Naples",40.858616666,14.268969444,"",Naples,Italy,cemetery,"",,
"Mira-Nila House",14.61146,121.05005,"",Bagong Lipunan ng Crame,Philippines,landmark,"",,
"Südwestfriedhof",48.1614,16.2989,"",Hetzendorf,Austria,cemetery,"",,
"Parish Church of Sipbachzell",48.0975,14.1092,"",Sipbachzell,Austria,cemetery,"",,
"St Mark's Basilica",45.434444444,12.339722222,"",Venezia-Murano-Burano,Italy,church,"",,
"Royal Palace of Naples",40.836136,14.249283,"",Naples,Italy,castle,"",,
"Grafheuvel #45187",52.17338,5.91962,"",Apeldoorn,Netherlands,cemetery,"",,
"Rubenshuis",51.217222222,4.409444444,"",Antwerp,Belgium,landmark,"",,
"Grafheuvel #45134",52.19035,5.23571,"",Baarn,Netherlands,cemetery,"",,
"The Palazzo",36.1244,-115.168,"",Paradise,United States,castle,"",,
"In den Kisseln",52.556666666,13.1795,"",Spandau,Germany,cemetery,"",,
"Notre Dame School",41.691111,-71.133889,"",Fall River,United States,university,"",,
"Valley of the Golden Mummies",28.326811111,28.826111111,"",Giza Governorate,Egypt,cemetery,"",,
"Pont-de-Nieppe Communal Cemetery",50.6998,2.8559,"",Nieppe,France,cemetery,"",,
"Nara National Museum Buddhist Art Library",34.68252778,135.83913889,"",Nara,Japan,museum,"",,
"Museo de Artes y Costumbres Populares de Sevilla",37.37216876,-5.987870188,"",Seville,Spain,museum,"",,
"Palazzo Brera",45.463577,9.182081,"",Milan,Italy,castle,"",,
"Lichtenstein Castle",48.406638888,9.25825,"",,,castle,"",,
"San Giorgio alla Costa",43.7653,11.25494,"",Florence,Italy,landmark,"",,
"Ledringhem churchyard",50.854478,2.440278,"",Ledringhem,France,cemetery,"",,
"瑞典斯德哥爾摩北墓園",59.356666666,18.019166666,"",Solna Municipality,Sweden,cemetery,"",,
"Chalet Orduña",37.63963312,-1.006819053,"",Cartagena,Spain,landmark,"",,
"Ramath Orah",40.8037,-73.9661,"",New York,United States,landmark,"",,
"Cold Springs Cemetery",43.183056,-78.656944,"",Lockport,United States,cemetery,"",,
"Frösö 58:1",63.176552,14.519462,"",Östersund Municipality,Sweden,cemetery,"",,
"Vsesvyatskoye cemetery, Krasnodar",45.044747222,38.971086111,"",Krasnodar,Russia,cemetery,"",,
"Hornaing Communal Cemetery",50.365217,3.334493,"",Hornaing,France,cemetery,"",,
"Cinecittà",41.85,12.566667,"",Rome,Italy,landmark,"",,
"Waldfriedhof Weißer Hirsch",51.0635,13.8323,"",Dresden,Germany,cemetery,"",,
"Hotel Horsa Nacional",-22.99796611,-43.25711389,"",São Conrado,Brazil,hotel,"",,
"Lake Biwa Otsu Prince Hotel",35.00485,135.88907,"",Kyoto,Japan,hotel,"",,
"Catacombs of Saint Agnes",41.92277778,12.51861111,"",Rome,Italy,cemetery,"",,
"Johan Cruyff Arena",52.314166666,4.941944444,"",,,stadium,"",,
"Bordentown School",40.1414,-74.7236,"",Burlington County,United States,university,"",,
"Tombe of Yve",50.60592,5.14188,"",Braives,Belgium,cemetery,"",,
"Carlton Hotel, Amsterdam",52.3665,4.893055555,"",Amsterdam,Netherlands,hotel,"",,
"Colegio mixto La Salle-San Rafael",40.433958333,-3.712958333,"",Gaztambide,Spain,landmark,"",,
"Barnweill Church",55.536721,-4.5289427,"",South Ayrshire,United Kingdom,cemetery,"",,
"Shah Mosque",32.654805555,51.677777777,"",,,temple,"",,
"Cannon County Courthouse",35.828333,-86.070833,"",Tennessee,United States,landmark,"",,
"Cimetière Sainte-Hélène de Strasbourg",48.5987,7.74129,"",Strasbourg,France,cemetery,"",,
"Burj Al Alam",25.1815,55.273,"",Emirate of Dubai,United Arab Emirates,landmark,"",,
"Shrine of the Virgin of the Rosary of Pompei",40.75,14.500555555,"",Pompei,Italy,temple,"",,
"Mount Baker Theatre",48.7522,-122.477,"",Bellingham,United States,theater,"",,
"Cimetière parisien d'Ivry",48.8118,2.36781,"",Ivry-sur-Seine,France,cemetery,"",,
"St. Albert",49.2482,6.992,"",Saarbrücken,Germany,landmark,"",,
"Tumulus of Verlaine",50.61421,5.30651,"",Verlaine,Belgium,cemetery,"",,
"Alte Pinakothek",48.148291,11.569985,"",,,landmark,"",,
"St. Mary's Royal Church",50.859166666,4.368888888,"",Schaerbeek,Belgium,church,"",,
"Baitul Mukarram National Mosque",23.72944444,90.41222222,"",Dhaka,Bangladesh,temple,"",,
"St. Paul's Cathedral, Dunedin",-45.873611111,170.502538888,"",Dunedin City,New Zealand,cemetery,"",,
"Jannat al-Mu'alla",21.436991,39.829213,"",Mecca,Saudi Arabia,cemetery,"",,
"Iserlohn Main Cemetery",51.3752,7.67991,"",Iserlohn,Germany,cemetery,"",,
"Fukuoka Camera Museum",36.711472222,136.929805555,"",Takaoka,Japan,museum,"",,
"Crookes Cemetery",53.3827,-1.5171,"",Sheffield,United Kingdom,cemetery,"",,
"Chapel of the Pines Crematory",34.0438,-118.295,"",Los Angeles,United States,cemetery,"",,
"St. Leger British Cemetery",50.188698,2.854287,"",Saint-Léger,France,cemetery,"",,
"Heath Wood barrow cemetery",52.8294,-1.49393,"",Ingleby,United Kingdom,cemetery,"",,
"Andersonville National Historic Site",32.194722222,-84.128888888,"",Andersonville,United States,cemetery,"",,
"Franvillers Communal Cemetery",49.964696,2.511449,"",Franvillers,France,cemetery,"",,
"The Bow",51.047777777,-114.062222222,"",Alberta,Canada,landmark,"",,
"Hotel Central",43.858013888,18.425936111,"",Stari Grad,Bosnia and Herzegovina,hotel,"",,
"National Portrait Gallery",38.897777777,-77.023055555,"",Washington, D.C.,United States,art_gallery,"",,
"Grafheuvel  #45964",51.98329,5.80566,"",Renkum,Netherlands,cemetery,"",,
"Rose Hills Memorial Park",34.0053,-118.0558,"",Whittier,United States,cemetery,"",,
"Tyne Cot Cemetery",50.8875,2.998889,"",Zonnebeke,Belgium,cemetery,"",,
"Butte Saint-Sauveur",50.60324,5.18821,"",Braives,Belgium,cemetery,"",,
"Former Sharp's House",34.700978,135.189256,"",Kobe,Japan,landmark,"",,
"Adolfo Alsina town hall",-37.180333,-62.761194,"",Adolfo Alsina Partido,Argentina,landmark,"",,
"Merville Communal Cemetery",50.6455,2.6397,"",Merville,France,cemetery,"",,
"Basílica Catedral Nuestra Señora de la Altagracia",18.61611111,-68.71694444,"",Higüey,Dominican Republic,church,"",,
"Woolworth Building",40.7124,-74.00822,"",Tribeca,United States,landmark,"",,
"Chaska Chayamachi",34.707397,135.500156,"",Osaka,Japan,landmark,"",,
"Fukushima Daiichi Nuclear Power Plant",37.42138889,141.0325,"",,,landmark,"",,
"Theban Necropolis",25.720833333,32.61,"",New Valley Governorate,Egypt,cemetery,"",,
"Headquarters of the French Communist Party",48.877777777,2.371666666,"",Paris,France,landmark,"",,
"Bothell Pioneer Cemetery",47.7589,-122.194,"",King County,United States,cemetery,"",,
"Beaurains Road Cemetery",50.27065,2.78415,"",Beaurains,France,cemetery,"",,
"Gare de Paris-Est",48.876944444,2.359166666,"",,,landmark,"",,
"»Ziegelsteinhaus«",59.9477,10.5009,"",Bærum Municipality,Norway,landmark,"",,
"National Congress Palace",-15.799722222,-47.864166666,"",Brasília,Brazil,castle,"",,
"Elm Ridge Cemetery",40.4539,-74.5153,"",North Brunswick,United States,cemetery,"",,
"Saburtalo Pantheon",41.715833333,44.734444444,"",Tbilisi,Georgia,cemetery,"",,
"Ehrenhain",53.9287,10.7056,"",Bad Schwartau,Germany,cemetery,"",,
"Costurero de la Reina",37.37604,-5.991518,"",Seville,Spain,landmark,"",,
"Unitarian Church of Barnstable",41.7007022,-70.2988469,"",Barnstable,United States,church,"",,
"Watertown Stadium",44.904444,-97.139167,"",South Dakota,United States,stadium,"",,
"Mastercard International Global Headquarters",41.0257,-73.7166,"",Purchase,United States,landmark,"",,
"Abydos",26.185167,31.918889,"",Sohag Governorate,Egypt,cemetery,"",,
"Burgerweeshuis",52.34056,4.85611,"",Amsterdam,Netherlands,landmark,"",,
"Saint-Malo Cathedral",48.64944444,-2.02555556,"",Saint-Malo,France,church,"",,
"Cascade Theatre",40.58198,-122.38947,"",Redding,United States,theater,"",,
"Assistens Cemetery",55.3882,10.3675,"",Odense Municipality,Denmark,cemetery,"",,
"Rakowicki Cemetery",50.075555555,19.953888888,"",Kraków,Poland,cemetery,"",,
"Cimetière de Charonne",48.8609,2.40347,"",Paris,France,cemetery,"",,
"Stockholm Mosque",59.315789,18.074736,"",Stockholm,Sweden,temple,"",,
"Heidefriedhof",51.1036,13.7085,"",Dresden,Germany,cemetery,"",,
"Elmwood Cemetery",39.096111,-94.525833,"",Kansas City,United States,cemetery,"",,
"Casino Kursaal Ostend",51.23139,2.9125,"",Ostend,Belgium,landmark,"",,
"Antonius van Paduakerk (Vianen, North Brabant)",51.718091666,5.857188888,"",Land van Cuijk,Netherlands,landmark,"",,
"National Park Service Southwest Regional Office",35.667075405,-105.922907909,"",Santa Fe,United States,park,"",,
"Forest Hills Cemetery",42.294688,-71.104916,"",Boston,United States,cemetery,"",,
"Queens Theatre",40.744269,-73.844524,"",New York,United States,theater,"",,
"Apostolic Palace",41.903611111,12.456388888,"",Vatican City,Vatican City,castle,"",,
"Mount Herzl",31.774117,35.180567,"",Jerusalem,Israel,cemetery,"",,
"World War I Cemetery nr 48 in Regietów",49.451928,21.224319,"",Regietów,Poland,cemetery,"",,
"Waldfriedhof Düsseldorf-Gerresheim",51.2308,6.86914,"",Düsseldorf,Germany,cemetery,"",,
"The Doughnut",51.899555555,-2.124361111,"",Benhall,United Kingdom,landmark,"",,
"Queen of Heaven Cemetery",41.862222222,-87.9025,"",Hillside,United States,cemetery,"",,
"Palacio de Xifré",40.413363888,-3.694197222,"",Cortes,Spain,castle,"",,
"Hotel De Anza",37.3344156,-121.8950487,"",San Jose,United States,hotel,"",,
"Nikolaikirchhof Görlitz",51.160136,14.98798,"",Görlitz,Germany,cemetery,"",,
"Cemetery of Saint-Fargeau",47.641,3.0756,"",Saint-Fargeau,France,cemetery,"",,
"Williams Tower",29.737222222,-95.461388888,"",Houston,United States,landmark,"",,
"Uelzen harbour tumulus",53.006,10.5596,"",Uelzen,Germany,cemetery,"",,
"Prince George Hotel",40.744722,-73.986667,"",New York,United States,hotel,"",,
"Neustädter Friedhof",52.3781,9.72556,"",Mitte,Germany,cemetery,"",,
"1928 Building",35.008472,135.766528,"",Kyoto,Japan,landmark,"",,
"Augsburg Cathedral",48.372743587,10.896565711,"",Augsburg,Germany,church,"",,
"Cimetière de Bosc",49.0317,2.28554,"",Saint-Prix,France,cemetery,"",,
"tumulus de Rubrat Huella",48.5088,-4.6784,"",Plourin,France,cemetery,"",,
"Friedhof Zehlendorf",52.439202777,13.25435,"",Steglitz-Zehlendorf,Germany,cemetery,"",,
"Campagne-lès-Wardrecques churchyard",50.718926,2.334406,"",Campagne-lès-Wardrecques,France,cemetery,"",,
"Seagram Building",40.758444444,-73.972138888,"",New York,United States,landmark,"",,
"Anıtkabir",39.925,32.836944444,"",,,landmark,"",,
"Social Science Research Center Berlin",52.5066,13.3651,"",Bezirk Mitte,Germany,landmark,"",,
"Cohasset Central Cemetery",42.245833,-70.807222,"",Cohasset,United States,cemetery,"",,
"United States Post Office",36.21972222,-81.68611111,"",Boone,United States,landmark,"",,
"Powązki Cemetery",52.251944444,20.972777777,"",Warsaw,Poland,cemetery,"",,
"Theodore Wirth House-Administration Building",44.931111,-93.291667,"",Minneapolis,United States,landmark,"",,
"Alcázar of Segovia",40.9525,-4.1325,"",Segovia,Spain,castle,"",,
"National Building Museum",38.8975,-77.018056,"",Washington, D.C.,United States,museum,"",,
"Campo santo",43.724,10.39495,"",Pisa,Italy,cemetery,"",,
"MAXXI",41.928467,12.468314,"",Roma Capitale,Italy,landmark,"",,
"Erie Armory",42.1325,-80.077778,"",Erie,United States,landmark,"",,
"Girod Street Cemetery",29.949722222,-90.078888888,"",New Orleans,United States,cemetery,"",,
"Cimetière Marin, Sète",43.3947,3.6917,"",Sète,France,cemetery,"",,
"Swissôtel The Stamford",1.2932771,103.8535076,"",Downtown Core,Singapore,landmark,"",,
"St Michael in Berg am Laim",48.125089961,11.630406029,"",Munich,Germany,landmark,"",,
"Plaza de toros de las Arenas",41.376288,2.149284,"",La Nova Esquerra de l'Eixample,Spain,landmark,"",,
"Mūrininkų pilkapiai",54.57263889,25.55272222,"",Rukainiai Eldership,Lithuania,cemetery,"",,
"Crypto.com Arena",34.043055555,-118.267222222,"",,,stadium,"",,
"Fourmies Communal Cemetery",50.012543,4.045862,"",Fourmies,France,cemetery,"",,
"Minaret of Philippe Suchard",46.982196,6.903426,"",Neuchâtel,Switzerland,landmark,"",,
"270 Park Avenue",40.755833333,-73.975555555,"",New York,United States,park,"",,
"Mariinsky Palace",59.930833333,30.309444444,"",Saint Petersburg,Russia,castle,"",,
"Cemitério de Vila Formosa",-23.563986111,-46.527441666,"",São Paulo,Brazil,cemetery,"",,
"Evere Cemetery",50.86944,4.42028,"",Evere,Belgium,cemetery,"",,
"The Charles Hotel",48.1427,11.5625,"",Maxvorstadt,Germany,hotel,"",,
"Solow Building",40.7639,-73.9748,"",New York,United States,landmark,"",,
"Hanehög",55.43416667,13.03416667,"",Vellinge Municipality,Sweden,cemetery,"",,
"Heidefriedhof",52.4387,13.3912,"",Tempelhof-Schöneberg,Germany,cemetery,"",,
"Weisman Art Museum",44.972777777,-93.238055555,"",Minneapolis,United States,museum,"",,
"Oud Eik en Duinen",52.066944,4.264444,"",The Hague,Netherlands,cemetery,"",,
"Cmentarz Bródnowski",52.27888889,21.03611111,"",Targówek,Poland,cemetery,"",,
"Catedral Militar Rainha da Paz",-15.78081,-47.92431,"",Brasília,Brazil,church,"",,
"Mercado de Salamanca",36.72738665,-4.424397113,"",Málaga,Spain,landmark,"",,
"Miusskaya Cemetery",55.79446681,37.59762976,"",Maryina Roshcha District,Russia,cemetery,"",,
"Manchester Civil Justice Centre",53.48087,-2.25247,"",Manchester,United Kingdom,landmark,"",,
"Building A",52.173339,5.818828,"",Radio Kootwijk,Netherlands,landmark,"",,
"Baptistery of Parma",44.803168,10.330429,"",Parma,Italy,landmark,"",,
"Niterói Contemporary Art Museum",-22.907777777,-43.126111111,"",Niterói,Brazil,museum,"",,
"Le Consortium",47.3217,5.04139,"",Dijon,France,landmark,"",,
"Palazzo Grassi",45.4337974,12.3279355,"",Venice,Italy,castle,"",,
"Beech Grove Cemetery",40.188889,-85.405556,"",Muncie,United States,cemetery,"",,
"mansion of Margarita Chernova",47.219281,39.702275,"",Rostov-on-Don,Russia,landmark,"",,
"Semperoper",51.054444444,13.735277777,"",,,landmark,"",,
"World War I Cemetery nr 7 in Desznica",49.55375,21.487222222,"",Desznica,Poland,cemetery,"",,
"Smolny Institute",59.946388888,30.396388888,"",Smolny Passage,Russia,university,"",,
"Amory House",42.8939,-72.1,"",Dublin,United States,landmark,"",,
"Saint Louis Art Museum",38.639306,-90.294491,"",St. Louis,United States,museum,"",,
"Reichstag",52.518611111,13.376111111,"",Bezirk Mitte,Germany,landmark,"",,
"military shrine of Reschenpass",46.716581,10.537106,"",Mals,Italy,cemetery,"",,
"Virreina Palace",41.38236,2.17159,"",El Raval,Spain,castle,"",,
"Sainte-Geneviève-des-Bois Russian Cemetery",48.6312,2.3457,"",Sainte-Geneviève-des-Bois,France,cemetery,"",,
"Solitude Palace",48.786944444,9.084166666,"",Stuttgart-West,Germany,castle,"",,
"Prince Eugens Waldemarsudde",59.32,18.113055555,"",Stockholm,Sweden,landmark,"",,
"History Faculty Building",52.201809,0.108559,"",Cambridge,United Kingdom,landmark,"",,
"Hôtel George-V",48.868789967,2.300724647,"",Paris,France,hotel,"",,
"John W. Blodgett Estate",42.957222,-85.623611,"",Michigan,United States,landmark,"",,
"Dolby Theatre",34.102777777,-118.340277777,"",,,theater,"",,
"Armenian Cemetery",55.766522222,37.553722222,"",Presnensky District,Russia,cemetery,"",,
"Nathan Smith House",43.582222222,-116.193333333,"",Boise,United States,landmark,"",,
"Ehrenfriedhof Heidelberg",49.393611111,8.6975,"",Heidelberg,Germany,cemetery,"",,
"Pinacoteca di Brera",45.471955,9.187815,"",,,landmark,"",,
"Waldfriedhof Dahlem",52.456,13.264,"",Steglitz-Zehlendorf,Germany,cemetery,"",,
"Valhøj",55.6747,12.4581,"",Rødovre Municipality,Denmark,cemetery,"",,
"RheinEnergie Stadion",50.933611,6.875,"",,,stadium,"",,
"Bayenghem-lès-Seninghem churchyard",50.70021,2.075005,"",Bayenghem-lès-Seninghem,France,cemetery,"",,
"Muir Woods National Monument Administration-Concession Building",37.893399,-122.572825,"",Marin County,United States,landmark,"",,
"Spiral",35.66368,139.71168,"",Tokyo,Japan,landmark,"",,
"Friedhof der Märzgefallenen",52.524444444,13.436388888,"",Friedrichshain-Kreuzberg,Germany,cemetery,"",,
"Lausanne railway station",46.516784833,6.629095833,"",Lausanne,Switzerland,landmark,"",,
"Edificio Carrión",40.420391666,-3.706688888,"",Palacio,Spain,landmark,"",,
"El Cortez Hotel",39.5267,-119.816,"",Nevada,United States,hotel,"",,
"Golden Angel",50.07177,14.40364,"",Prague 5,Czech Republic,landmark,"",,
"Grafheuvel, alsmede een zone",51.98178,5.77497,"",Renkum,Netherlands,cemetery,"",,
"Fairmont Senior High School",39.4786,-80.1572,"",Fairmont,United States,university,"",,
"Musée d'Orsay",48.86,2.326388888,"",,,museum,"",,
"Vorontsov Palace",44.419776,34.05552,"",Alupka,Ukraine,castle,"",,
"Church of Our Lady",51.051944444,13.741666666,"",Dresden,Germany,church,"",,
"Chester Cathedral",53.191944444,-2.890555555,"",Chester,United Kingdom,church,"",,
"Mare de Deu de Gràcia",42.1351,3.11981,"",L'Escala,Spain,landmark,"",,
"Alter Friedhof",49.145,9.22755,"",Heilbronn,Germany,cemetery,"",,
"Monumental Cemetery of Verona",45.433191,11.005391,"",Verona,Italy,cemetery,"",,
"Gare de Paris-Nord",48.881111111,2.355277777,"",,,landmark,"",,
"Easton Cemetery",40.698611,-75.218611,"",Easton,United States,cemetery,"",,
"Palazzo Braschi",41.896921,12.472829,"",Rome,Italy,castle,"",,
"Kazansky railway station",55.7736109,37.65566991,"",Krasnoselsky District,Russia,landmark,"",,
"Feriköy Protestant Cemetery",41.053889,28.983889,"",Şişli,Turkey,cemetery,"",,
"Century Tower",35.70230556,139.75972222,"",Tokyo,Japan,landmark,"",,
"Ehrenfriedhof Elberfeld",51.2447,7.12389,"",Wuppertal,Germany,cemetery,"",,
"Hasnon churchyard",50.424025,3.388025,"",Hasnon,France,cemetery,"",,
"Crosstown Concourse",35.152021,-90.015002,"",Memphis,United States,landmark,"",,
"13 Virmenska Street, Lviv",49.843333333,24.031388888,"",Lviv,Ukraine,landmark,"",,
"Hardenberg Protestant Cemetery",52.57528,6.62333,"",Hardenberg,Netherlands,cemetery,"",,
"Faculty of Architecture and Urbanism of the University of São Paulo",-23.56012,-46.72985,"",Butantã,Brazil,university,"",,
"Karacaahmet Cemetery",41.0106,29.0261,"",Üsküdar,Turkey,cemetery,"",,
"Žale Central Cemetery",46.070781083,14.531855141,"",Ljubljana City Municipality,Slovenia,cemetery,"",,
"Preobrazhenskoye Cemetery",55.79189,37.71979,"",Moscow,Russia,cemetery,"",,
"Palazzo Massimo alle Colonne",41.89666667,12.47361111,"",Roma Capitale,Italy,castle,"",,
"Roncq cemetery",50.755421,3.116734,"",Roncq,France,cemetery,"",,
"Defence Forces Cemetery of Tallinn",59.4216,24.7655,"",Tallinn City,Estonia,cemetery,"",,
"Le Grand Beaumart British Cemetery",50.697867,2.750852,"",Steenwerck,France,cemetery,"",,
"Zuytpeene churchyard",50.793744,2.430435,"",Zuytpeene,France,cemetery,"",,
"Kernourz dolmen",47.63455556,-2.95705556,"",Le Bono,France,cemetery,"",,
"Eiffel Tower",48.858296,2.294479,"",,,landmark,"",,
"New Jewish Cemetery",50.0533,19.9519,"",Kraków,Poland,cemetery,"",,
"Cuvilliés Theatre",48.1409,11.58002,"",Altstadt-Lehel,Germany,theater,"",,
"Shrine Auditorium and Expo Hall",34.023333333,-118.281666666,"",Los Angeles,United States,temple,"",,
"Okanoyama Museum of Art Nishiwaki",35.002083,134.997917,"",Nishiwaki,Japan,museum,"",,
"Reumont Churchyard",50.083422,3.480572,"",Reumont,France,cemetery,"",,
"Grande Arche",48.8928,2.235830555,"",,,landmark,"",,
"Chicago Water Tower",41.89716,-87.62442,"",Chicago,United States,landmark,"",,
"High Museum of Art",33.790047,-84.385566,"",Fulton County,United States,museum,"",,
"Maison de l'ordre des avocats",48.894902612,2.31131409,"",Paris,France,landmark,"",,
"Western Xia Imperial Tombs",38.435035,105.987167,"",Yinchuan,People's Republic of China,cemetery,"",,
"Terrein waarin zes grafheuvels",52.22187,5.714,"",Barneveld,Netherlands,cemetery,"",,
"Friedhof Wannsee, Lindenstraße",52.425227777,13.153872222,"",Steglitz-Zehlendorf,Germany,cemetery,"",,
"Basilica Palladiana",45.546944444,11.546388888,"",Vicenza,Italy,church,"",,
"Basilica of St. John the Baptist",43.365,-5.85083333,"",Oviedo City,Spain,church,"",,
"Kerpen courthouse",50.8757,6.69143,"",Kerpen,Germany,landmark,"",,
"Fortified refuge of Dossenheim-sur-Zinsel",48.8056,7.40256,"",Dossenheim-sur-Zinsel,France,cemetery,"",,
"Lindencrone Mansion",55.68259722,12.589025,"",Copenhagen Municipality,Denmark,landmark,"",,
"San Giovanni Grisostomo, Venice",45.439139,12.337139,"",Venice,Italy,landmark,"",,
"St. John Cemetery",40.715,-73.8669,"",New York,United States,cemetery,"",,
"Collegium Stomatologicum w Poznaniu",52.4086,16.89,"",Poznań,Poland,landmark,"",,
"Filialkirche Reintal, Winklern",46.8615,12.8892,"",Winklern,Austria,cemetery,"",,
"monumental cemetery of Brescia",45.5408,10.2021,"",Brescia,Italy,cemetery,"",,
"Synagogue of Besançon",47.24133333,6.02144444,"",Besançon,France,temple,"",,
"St. Hans hög",55.435575,13.127604,"",Trelleborg Municipality,Sweden,cemetery,"",,
"Culver Hotel",34.02397,-118.39404,"",Culver City,United States,hotel,"",,
"Beckenham Crematorium and Cemetery",51.4017,-0.0569444,"",London Borough of Bromley,United Kingdom,cemetery,"",,
"H. L. and Gretchen Hoyt Corbett House",45.43861111,-122.66388889,"",Multnomah County,United States,landmark,"",,
"Dunbar School",39.48666667,-80.14666667,"",Fairmont,United States,university,"",,
"Berlin-Tegel Airport",52.559722,13.287778,"",,,landmark,"",,
"Lichterfelde cemetery",52.443888888,13.310277777,"",Steglitz-Zehlendorf,Germany,cemetery,"",,
"St. Mary's Cathedral",35.714167,139.726667,"",Tokyo,Japan,church,"",,
"Lulua Mosque",30.0199,31.2682,"",Cairo Governorate,Egypt,temple,"",,
"Cimetière attenant à l'église Saint-Vivien de Romagne",44.7603,-0.197545,"",Romagne,France,cemetery,"",,
"Catacombs of Paris",48.83397,2.33245,"",Paris,France,cemetery,"",,
"Palazzo Corner Spinelli",45.435562,12.330688,"",San Marco,Italy,castle,"",,
"Château de Sully-sur-Loire",47.7677,2.3752,"",Sully-sur-Loire,France,castle,"",,
"Bình An Cemetery",10.889282,106.810327,"",Dĩ An,Vietnam,cemetery,"",,
"Le Volcan",49.4904,0.106945,"",Le Havre,France,landmark,"",,
"Fernández López Building of the Pontevedra Museum",42.432305555,-8.643222222,"",Pontevedra,Spain,museum,"",,
"Kremlin Wall Necropolis",55.75378,37.619308,"",Tverskoy District,Russia,cemetery,"",,
"Enghenbergje",52.1702,5.30296,"",Soest,Netherlands,cemetery,"",,
"Rathaus",35.7385,139.327,"",Tokyo,Japan,landmark,"",,
"Berkovets cemetery",50.494444444,30.395,"",Podil Raion,Ukraine,cemetery,"",,
"Raismes cemetery",50.394795,3.480783,"",Raismes,France,cemetery,"",,
"WRVA Building",37.5328,-77.4223,"",Virginia,United States,landmark,"",,
"Saint Fin Barre's Cathedral",51.8944,-8.48064,"",Cork,Ireland,church,"",,
"Kunsthal",51.910777777,4.473444444,"",Rotterdam,Netherlands,landmark,"",,
"San Nicola di Bari",37.81808,12.80109,"",Salemi,Italy,landmark,"",,
"Laires Churchyard",50.539082,2.253193,"",Laires,France,cemetery,"",,
"Speyer Cathedral",49.317222,8.4425,"",Speyer,Germany,church,"",,
"Cimetière des Carmes",45.7844,3.09624,"",Clermont-Ferrand,France,cemetery,"",,
"World Trade Center Mexico City",19.394666666,-99.173861111,"",Benito Juárez,Mexico,landmark,"",,
"St. Albans Post Office",38.3864,-81.8358,"",West Virginia,United States,landmark,"",,
"Donskoe cemetery",55.712144444,37.602275,"",Donskoy District,Russia,cemetery,"",,
"Nollendorfplatz metro station",52.499166666,13.353888888,"",Tempelhof-Schöneberg,Germany,landmark,"",,
"Fricourt German war cemetery",50.004444444,2.715277777,"",Fricourt,France,cemetery,"",,
"Neues Museum",52.5202,13.3976,"",Bezirk Mitte,Germany,museum,"",,
"Church of San Fermín de los Navarros",40.432725,-3.692592,"",Chamberí,Spain,church,"",,
"La Vela",40.501244444,-3.664519444,"",Madrid,Spain,landmark,"",,
"Tuntex Sky Tower",22.611666666,120.3,"",,,landmark,"",,
"Nieuwe Zandweg Cemetery",52.060278,4.916389,"",Montfoort,Netherlands,cemetery,"",,
"Virginia Hall",32.84277778,-96.78638889,"",University Park,United States,landmark,"",,
"Röm.-kath. Pfarrkirche zum Heiligen Nikolaus in Westendorf, Tyrol",47.4318,12.2149,"",Westendorf,Austria,cemetery,"",,
"Raffles City",1.293611111,103.853055555,"",Downtown Core,Singapore,landmark,"",,
"Südwestkirchhof Stahnsdorf",52.3889,13.1806,"",Stahnsdorf,Germany,cemetery,"",,
"Pendé churchyard",50.157515,1.584454,"",Pendé,France,cemetery,"",,
"Jewish cemetery in Währing",48.232469444,16.3518,"",Vienna,Austria,cemetery,"",,
"Zagreb Cathedral",45.814444444,15.979722222,"",Zagreb,Croatia,church,"",,
"Rashtrapati Bhavan",28.614342,77.199804,"",New Delhi district,India,landmark,"",,
"monumental cemetery of Busto Arsizio",45.608887,8.8285386,"",Busto Arsizio,Italy,cemetery,"",,
"Sowjetische Kriegsgräberstätte Simmerath-Rurberg",50.6094,6.36538,"",Simmerath,Germany,cemetery,"",,
"Tamminiemi",60.18947563,24.88309986,"",Helsinki,Finland,landmark,"",,
"Box Hill Cemetery",-37.8225,145.136,"",Victoria,Australia,cemetery,"",,
"Lancy-Pont-Rouge railway station",46.185945299,6.124946982,"",Lancy,Switzerland,landmark,"",,
"Taza Pir Mosque",40.372097,49.828671,"",Yasamal raion,Azerbaijan,temple,"",,
"Community Memorial Hospital",42.560833,-71.582222,"",Ayer,United States,landmark,"",,
"Katowice railway station",50.258333333,19.0175,"",Śródmieście,Poland,landmark,"",,
"Bourse Palace",50.848111111,4.350305555,"",City of Brussels,Belgium,castle,"",,
"Grace Hopkinson Eliot Hall",42.380833,-71.124722,"",Cambridge,United States,landmark,"",,
"Jones County High School",33.00722222,-83.53861111,"",Gray,United States,university,"",,
"Villa Göth",59.84398056,17.62979444,"",Uppsala Municipality,Sweden,landmark,"",,
"Palacio Díaz-Gana",-33.445725,-70.666006,"",Santiago Metropolitan Region,Chile,landmark,"",,
"Rödön 33:3",63.226304,14.471592,"",Krokom Municipality,Sweden,cemetery,"",,
"Villa Park",52.509166666,-1.884722222,"",,,park,"",,
"Palazzo Rucellai",43.77127778,11.24959722,"",Florence,Italy,castle,"",,
"Mbombela Stadium",-25.461888888,30.929777777,"",,,stadium,"",,
"Royal Tombs of the Joseon Dynasty",37.19722222,128.45277778,"",Gyeonggi Province,South Korea,cemetery,"",,
"House ""De Waal""",52.087111111,5.155833333,"",Utrecht,Netherlands,landmark,"",,
"City Cemetery",32.982342,-82.814191,"",Sandersville,United States,cemetery,"",,
"Estación de Servicio Repsol - Foster",39.487702777,-0.404213888,"",Valencia,Spain,landmark,"",,
"McFarlin Memorial Auditorium",32.8443,-96.7861,"",Dallas County,United States,landmark,"",,
"Hannescamps New Military Cemetery",50.166387,2.637065,"",Hannescamps,France,cemetery,"",,
"Our Lady of Mercy Church",-34.605388,-58.37206,"",Buenos Aires,Argentina,church,"",,
"California Aerospace Museum",34.0167,-118.2839,"",South Los Angeles,United States,museum,"",,
"10 Downing Street",51.503333333,-0.127777777,"",City of Westminster,United Kingdom,landmark,"",,
"Wynne Post Office",35.2242,-90.7892,"",Wynne,United States,landmark,"",,
"Vontz Center for Molecular Studies",39.1363,-84.5063,"",Cincinnati,United States,landmark,"",,
"Palais Montcalm",46.812105,-71.213371,"",La Cité-Limoilou,Canada,castle,"",,
"Monument to the Unknown Hero",44.688694444,20.515805555,"",City of Belgrade,Serbia,landmark,"",,
"Hawara",29.274,30.899,"",Markaz al Fayyūm,Egypt,cemetery,"",,
"House in carrer Bisbe Vilanova, 16",42.179111111,2.486525,"",Olot,Spain,landmark,"",,
"Bancourt British Cemetery",50.102288,2.897486,"",Bancourt,France,cemetery,"",,
"Drobytsky Yar",49.933055555,36.44,"",Kharkiv,Ukraine,cemetery,"",,
"Cathedral of Our Lady of the Angels",34.058333333,-118.245833333,"",Los Angeles,United States,church,"",,
"Farkasréti Cemetery",47.483852777,19.004855555,"",Budapest District XII,Hungary,cemetery,"",,
"Atelier-Museu Júlio Pomar",38.711366,-9.150426,"",Misericórdia,Portugal,landmark,"",,
"Gedenkstätte Gudendorf",54.0185,9.10472,"",Gudendorf,Germany,cemetery,"",,
"Sowjetischer Ehrenfriedhof Reitwein",52.5006,14.5783,"",Reitwein,Germany,cemetery,"",,
"Rock and Roll Hall of Fame",41.508611111,-81.695555555,"",Cleveland,United States,landmark,"",,
"Ostfriedhof",48.119644958,11.590886403,"",Munich,Germany,cemetery,"",,
"Palazzo Ducale",43.724235,12.635989,"",Urbino,Italy,castle,"",,
"Roger Gaudry Building",45.502785,-73.614879,"",Côte-des-Neiges–Notre-Dame-de-Grâce,Canada,landmark,"",,
"Tumulus op der Schanz",49.745611,6.325833,"",Altrier,Luxembourg,cemetery,"",,
"Edgar Holloway House",37.00888889,-121.57,"",Gilroy,United States,landmark,"",,
"World War I Cemetery nr 8 in Nowy Żmigród",49.6075,21.531667,"",Nowy Żmigród,Poland,cemetery,"",,
